id,address,at_street,description,latitude,longitude,municipality,name,on_street
"node-428-lobby",,,"Maverick - Bottom of escalator from lobby to Lewis Mall",,,"Boston","Maverick",
"4373",,"Westvale Road",,"42.254584","-71.049864","Milton","Edge Hill Rd opp Westvale Rd","Edgehill Road"
"17354",,,,"42.489729","-70.968996","Lynn","Lynnfield St @ St Marys Cemetery","Lynnfield Street"
"1339",,"Saint Richard Street",,"42.323534","-71.084009","Boston","Walnut Ave @ St Richard St","Walnut Avenue"
"82851",,"Page Road",,"42.353395","-71.208103","Newton","Walnut St @ Page Rd","Walnut Street"
"node-129-lobby",,,"Forest Hills - Top of Orange Line platform north escalator",,,"Boston","Forest Hills",
"4001",,"Hillsdale Road",,"42.139833","-71.006985","Holbrook","S Franklin St opp Hillsdale Rd","South Franklin Street"
"9221",,"Banks Place",,"42.443302","-71.068052","Melrose","Main St @ Banks Pl","Main Street"
"3253",,"Babcock Street",,"42.266353","-70.968781","Quincy","Sea St @ Babcock St","Sea Street"
"door-knncl-sbmain",,,"Kendall/MIT - Main St, Buses, Cambridge Center","42.362259","-71.086206","Cambridge","Kendall/MIT - Main St, Buses, Cambridge Center",
"89608",,"Craig Lane",,"42.395355","-71.247958","Waltham","Totten Pond Rd @ Craig Ln","Totten Pond Road"
"node-armnl-wescstairs-lobby",,,"Arlington - Bottom of stairs from westbound escalator",,,"Boston","Arlington",
"111146",,,,"42.303676","-70.919766","Hull","Pemberton Point","Main Street"
"9172",,"Sables Court",,"42.416769","-71.105122","Medford","116 Riverside Ave","Riverside Avenue"
"8553",,"Keller Path",,"42.29108","-71.185716","Newton","Sawmill Brook Pkwy @ Keller Path","Sawmill Brook Parkway"
"4614",,,,"42.549752","-70.931153","Danvers","Endicott St @ Market Basket","Endicott Street"
"8911",,,,"42.398446","-71.234394","Waltham","Opp 680 Lexington St","Lexington Street"
"node-935-platform",,,"World Trade Center - Bottom of inbound platform elevator",,,"Boston","World Trade Center",
"4918",,"Spring Pond Road",,"42.498558","-70.954141","Peabody","Lynn St @ Spring Pond Rd","Lynn Street"
"6250",,"Stark Avenue",,"42.41787","-71.010378","Revere","Malden St @ Stark Ave","Malden Street"
"70238",,,"Cleveland Circle - Green Line - Park Street & North","42.336252","-71.148774","Boston","Cleveland Circle",
"9070236",,,"Englewood Avenue - Green Line Eastbound Shuttle","42.336781","-71.145835","Brookline","Englewood Avenue",
"1804",,"Longwood Avenue",,"42.339097","-71.106836","Boston","Brookline Ave @ Longwood Ave","Brookline Avenue"
"5037",,"Winthrop Street",,"42.414274","-71.119813","Medford","George St @ Winthrop St","George Street"
"8465",,"Crescent Avenue",,"42.489127","-71.278935","Bedford","South Rd @ Crescent Ave","South Road"
"6177",,"Saltonstall Parkway",,"42.512725","-70.89209","Salem","Lafayette St @ Saltonstall Pkwy","Lafayette Street"
"70007",,,"Jackson Square - Orange Line - Oak Grove","42.323132","-71.099592","Boston","Jackson Square",
"node-haecl-congogplatn-passage",,,"Haymarket - Top of stairs between mezzanine and Oak Grove platform",,,"Boston","Haymarket",
"5598",,"Jefferson Avenue",,"42.402028","-71.035402","Chelsea","296 Washington Ave opp Jefferson Ave","Washington Avenue"
"door-prmnl-prudential",,,"Prudential - Prudential Center","42.345632","-71.081223","Boston","Prudential - Prudential Center",
"5870",,"Putnam Street",,"42.377644","-71.03133","Boston","Bennington St @ Putnam St","Bennington Street"
"4297",,"Charles Street",,"42.192747","-71.059709","Randolph","N Main St @ Charles St","North Main Street"
"49903",,"Unnamed Road",,"42.481345","-71.123476","Woburn","42 Central St","Central Street"
"608",,"West Roxbury Parkway",,"42.275418","-71.140573","Boston","Washington St @ W Roxbury Pkwy","Washington Street"
"5300",,"Dexter Street",,"42.398961","-71.102197","Medford","Main St @ Dexter St","Main Street"
"8467",,"Hancock Street",,"42.49331","-71.278346","Bedford","Springs Rd @ Hancock St","Springs Road"
"9070130",,,"Harvard Avenue - Green Line Eastbound Shuttle","42.350191","-71.131085","Boston","Harvard Avenue",
"2797",,"Hilburn Street",,"42.277378","-71.127103","Boston","Metropolitan Ave @ Hilburn St","Metropolitan Avenue"
"5644",,"Francis Street",,"42.402773","-71.043325","Everett","Chelsea St opp Frances St","Chelsea Street"
"node-427-platform",,,"Fields Corner - Top of escalator to Alewife platform",,,"Boston","Fields Corner",
"7163",,"Osgood Street",,"42.532317","-70.888384","Salem","Bridge St @ Osgood St","Bridge Street"
"node-147-platform",,,"Tufts Medical Center - Bottom of Escalator 147",,,"Boston","Tufts Medical Center",
"door-crtst-south",,,"Courthouse - Thomson Pl, Seaport Blvd","42.352247","-71.046901","Boston","Courthouse - Thomson Pl, Seaport Blvd",
"2448",,"Broadway",,"42.369203","-71.101015","Cambridge","Prospect St @ Broadway","Prospect Street"
"4404",,,,"42.258447","-71.081447","Milton","Brook Rd @ Central Ave","Brook Road"
"4423",,"Dewey Road",,"42.230967","-70.978468","Braintree","Shaw St @ Dewey Rd","Shaw Street"
"2889",,"Columbia Road",,"42.413444","-71.108991","Medford","Mystic Ave @ Columbia Rd","Mystic Avenue"
"5674",,"Willow Street",,"42.38837","-71.026854","Chelsea","Central Ave @ Willow St","Central Avenue"
"node-symcl-wb-farepaid",,,"Symphony - Paid side of fare gates",,,"Boston","Symphony",
"8209",,"Columbia Avenue",,"42.314177","-71.21603","Newton","Elliot St @ Columbia Ave","Elliot Street"
"2355",,"Highland Avenue",,"42.410149","-71.175919","Arlington","West Service Rd @ Pedestrian Bridge","Frontage Road"
"7194",,"Salem Water Works Road",,"42.580255","-70.886459","Beverly","Dodge St @ Tozer Rd","Dodge Street"
"2688",,,,"42.383968","-71.092101","Somerville","Medford St @ Highland Ave","Medford Street"
"4860",,"West Street",,"42.483434","-70.888223","Marblehead","Humphrey St @ West St","Humphrey Street"
"3708",,,,"42.242995","-70.948461","Weymouth","Sea St @ Bridge St","Sea Street"
"3116",,"Elliot Avenue",,"42.266943","-71.03587","Quincy","Harvard St @ Elliot Ave","Harvard Street"
"place-cedgr","Fellsway St and Milton St, Dorchester, MA 02124",,,"42.279682","-71.060432","Boston","Cedar Grove",
"49739",,"Kimball Avenue",,"42.486346","-71.197685","Burlington","S Bedford St opp Kimball Ave","South Bedford Street"
"4089",,"Purgatory Road",,"42.22958","-71.030926","Quincy","Willard St @ Thistle Rd","Willard Street"
"84881",,"Nahanton Street",,"42.298933","-71.201934","Newton","677 Winchester St","Winchester Street"
"1168",,"Townsend Street",,"42.319958","-71.094067","Boston","Washington St @ Townsend St","Washington Street"
"3852",,"Verchild Street",,"42.233513","-71.006101","Quincy","Independence Ave opp Verchild St","Independence Avenue"
"2817",,"Gordon Avenue",,"42.257289","-71.126828","Boston","Austin St @ Gordon Ave","Austin Street"
"node-sull-sbstairs-platform",,,"Sullivan Square - Bottom of stairs for Forest Hills, Oak Grove",,,"Boston","Sullivan Square",
"5684",,"Maple Street",,"42.39743","-71.040116","Chelsea","Everett Ave @ Maple St","Everett Avenue"
"986",,"Hibbard Road",,"42.35483","-71.181197","Newton","Tremont St @ Hibbard Rd","Tremont Street"
"7608",,"Stocker Street",,"42.456528","-70.993273","Saugus","Winter St opp Stocker St","Winter Street"
"5781",,"Northshore Road",,"42.408604","-70.993409","Revere","Beach St @ N Shore Rd","Beach Street"
"2686",,,,"42.385875","-71.09619","Somerville","Highland Ave @ Vinal Ave","Highland Avenue"
"3124",,"Farrington Street",,"42.273004","-71.031092","Quincy","W Squantum St @ Farrington St","West Squantum Street"
"7602",,,,"42.365063","-71.256642","Waltham","South St opp Brandeis Univ Entrance","South Street"
"7890",,"Brooksbie Road",,"42.488167","-71.268268","Bedford","Great Rd opp Brooksbie Rd","The Great Road"
"16458",,"Fairway Street",,"42.268381","-71.095147","Boston","Cummins Hwy @ Fairway St","Cummins Highway"
"11587",,"Pierpoint Road",,"42.305236","-71.094725","Boston","Circuit Dr @ Glen Ln","Jewish War Veterans Drive"
"node-lbusramp-lower",,,"Sullivan Square - Bottom of ramp for lower busway",,,"Boston","Sullivan Square",
"1294",,"Corey Road",,"42.342466","-71.140502","Boston","Washington St @ Corey Rd","Washington Street"
"2050",,"Parker Street",,"42.367937","-71.178736","Watertown","Mt Auburn St @ Parker St","Mount Auburn Street"
"2286",,"Highland Avenue",,"42.417833","-71.164714","Arlington","905 Massachusetts Ave","Massachusetts Avenue"
"24610",,"Yerxa Road",,"42.39295","-71.128818","Cambridge","Rindge Ave @ Hollis St","Rindge Avenue"
"78632",,"Waverley Oaks Road",,"42.383073","-71.208507","Waltham","opp 135 Beaver St","Beaver Street"
"954",,"University Road",,"42.350453","-71.108831","Boston","Commonwealth Ave @ University Rd","Commonwealth Avenue"
"9161",,,,"42.4098","-71.085081","Medford","Riverside Ave @ Fellsway","Riverside Avenue"
"2405",,,,"42.401721","-71.116808","Somerville","College Ave @ Warner St","College Avenue"
"30287",,"Dorchester Street",,"42.334168","-71.048924","Boston","W 6th S @ Dorchester St","West Sixth Street"
"door-cntsq-western",,,"Central - Western Ave","42.365635","-71.104304","Cambridge","Central - Western Ave",
"256",,"Dorchester Street",,"42.333612","-71.049923","Boston","W 7th St @ Dorchester St","West Seventh Street"
"32818",,,,"42.241728","-71.130753","Boston","1661 Hyde Park Ave","Hyde Park Avenue"
"3268",,"Bell Street",,"42.26918","-70.952467","Quincy","Sea St opp Macy St","Sea Street"
"2601",,,,"42.373888","-71.082777","Somerville","McGrath Hwy @ Twin City Plaza","McGrath Highway"
"node-966-lobby",,,"Maverick - Bottom of elevator between Lewis Mall and lobby",,,"Boston","Maverick",
"88335",,"Exchange Street",,"42.376266","-71.240174","Waltham","Main St @ Exchange St","Main Street"
"111738",,"Austin Street",,"42.262866","-71.095677","Milton","Blue Hill Ave - Brush Hill Rd to Tucker St (FLAG)","Blue Hill Avenue"
"2907",,"West Howell Street",,"42.325142","-71.059251","Boston","Boston St @ W Howell St","Boston Street"
"node-710-platform",,,"Wonderland - Platform level of Wonderland-bound platform elevator",,,"Revere","Wonderland",
"109893",,"Woodside Avenue",,"42.375811","-70.987603","Winthrop","Pauline St @ Woodside Ave","Pauline Street"
"5638",,"Spring Street",,"42.40517","-71.051943","Everett","Chelsea St @ Spring St","Chelsea Street"
"6507",,"West Street",,"42.261535","-71.1223","Boston","Hyde Park Ave @ West St","Hyde Park Avenue"
"node-962-platform",,,"Arlington - Bottom of westbound elevator",,,"Boston","Arlington",
"14717",,"Beach Street",,"42.409782","-71.002099","Revere","American Legion Hwy @ Beach St - Bell Circle","American Legion Highway"
"2103",,"Walnut Street",,"42.384554","-71.182453","Belmont","Trapelo Rd @ Walnut St","Trapelo Road"
"1572",,"Julian Street",,"42.319177","-71.077688","Boston","Blue Hill Ave @ Julian St","Blue Hill Avenue"
"4072",,"Canessa Street",,"42.179866","-71.029401","Randolph","North St @ Canessa St","North Street"
"2806",,"Cornell Street",,"42.274646","-71.127923","Boston","Poplar St @ Cornell St","Poplar Street"
"577",,,,"42.27135","-71.082411","Boston","River St opp Leahaven Rd","River Street"
"6851",,"Waitt Avenue",,"42.483738","-70.939851","Lynn","Eastern Ave @ Waitt Ave","Eastern Avenue"
"8187",,"Adams Street",,"42.360084","-71.202315","Newton","Watertown St @ Adams St","Watertown Street"
"78606",,"Porter Road",,"42.395337","-71.206707","Waltham","Trapelo Rd @ Porter Rd","Trapelo Road"
"109868",,"Douglas Street",,"42.381889","-70.98615","Winthrop","Main St @ Hermon St","Main Street"
"2788",,"Myopia Road",,"42.264152","-71.126798","Boston","243 West St opp Myopia Rd","West Street"
"4009",,"Chandler Street",,"42.152223","-71.008282","Holbrook","S Franklin St @ Holbrook Park","South Franklin Street"
"70197",,,"Park Street - Green Line - (C) Cleveland Circle","42.356395","-71.062424","Boston","Park Street",
"5381",,,,"42.427576","-71.050902","Malden","23 Bowdoin St","Bowdoin Street"
"7328",,"Trevett Avenue",,"42.494559","-70.970895","Lynn","Lynnfield St opp Trevett Ave","Lynnfield Street"
"6254",,"Steeple Street",,"42.420494","-71.015176","Revere","Malden St @ Steeple St","Malden Street"
"8497",,"Hagen Road",,"42.316115","-71.194994","Newton","Parker St @ Hagen Rd","Parker Street"
"10",,"Newmarket Square",,"42.330555","-71.068787","Boston","Theo Glynn Way @ Newmarket Sq","Theodore Glynn Way"
"89410",,"Reservation Road",,"42.252083","-71.131077","Boston","River St @ Reservation Rd","River Street"
"3925",,,,"42.197675","-71.005055","Braintree","Hancock St opp Hancock Ave","Hancock Street"
"3396",,"Kimball Street",,"42.254789","-71.033754","Quincy","Robertson St opp Kimball St","Robertson Street"
"node-325-platform",,,"North Quincy - Bottom of escalator from platform to Squantum Street lobby",,,"Quincy","North Quincy",
"node-nqncy-senterramp-bus",,,"North Quincy - Bottom of ramp between busway and Red Line station",,,"Quincy","North Quincy",
"5081",,"Fellsway East",,"42.430243","-71.082798","Malden","Savin St @ Fellsway E","Savin Street"
"1406",,"Norfolk Street",,"42.373088","-71.096361","Cambridge","Cambridge St @ Norfolk St","Cambridge Street"
"3673",,"Academy Avenue",,"42.222384","-70.939056","Weymouth","Middle St @ Academy Ave","Middle Street"
"6637",,"Summer Street",,"42.424888","-70.916003","Nahant","Nahant Rd @ Summer St","Nahant Road"
"8595",,"Marrett Road",,"42.436391","-71.212514","Lexington","Massachusetts Ave opp Marrett Rd","Massachusetts Avenue"
"14836",,"Green Street",,"42.506258","-70.851977","Marblehead","Elm St @ Mugford St","Elm Street"
"1850",,"Ravenna Road",,"42.293107","-71.143325","Boston","Weld St @ Ravenna Rd","Weld Street"
"3199",,"Alleyne Street",,"42.255884","-71.008922","Quincy","Adams St opp Alleyne St","Adams Street"
"9068",,"Brentwood Street",,"42.436363","-71.027039","Malden","Salem St @ Brentwood St","Salem Street"
"node-shmnl-sh-fareunpaid",,,"Savin Hill - Unpaid side of Savin Hill Avenue fare gates",,,"Boston","Savin Hill",
"562",,"Bowdoin Street",,"42.303532","-71.071545","Boston","Geneva Ave @ Bowdoin St","Geneva Avenue"
"13820",,"Winter Court",,"42.201881","-70.946697","Weymouth","Washington St @ Winter Ct","Washington Street"
"4457",,"Flint Street",,"42.519091","-70.904073","Salem","Essex St @ Flint St","Essex Street"
"6818",,"Franklin Street",,"42.46998","-70.960174","Lynn","North Franklin St. @ Boston St.","North Franklin Street"
"2727",,"Fenwick Street",,"42.394013","-71.095872","Somerville","Broadway @ Fenwick St","Broadway"
"node-spmnl-obstairs-lobby",,,"Science Park - Bottom of outbound platform stairs",,,"Boston","Science Park",
"node-knncl-nbmain-farepaid",,,"Kendall/MIT - Paid side of fare gates",,,"Cambridge","Kendall/MIT",
"70240",,,"Prudential - Green Line - Park Street & North","42.34557","-71.081696","Boston","Prudential",
"5376",,"Phillips Street",,"42.424982","-71.063517","Malden","Eastern Ave @ Phillips Ct","Eastern Avenue"
"10016",,,,"42.499312","-71.162566","Woburn","TradeCenter 128",
"4455",,"Beckford Street",,"42.52062","-70.901543","Salem","Essex St @ Beckford St","Essex Street"
"node-940-entrance",,,"Courthouse - Top of elevator between Fan Pier Boulevard and lobby",,,"Boston","Courthouse",
"45080",,"Fellsmere Road",,"42.430291","-71.08622","Malden","Savin St @ Fellsmere Rd","Savin Street"
"11809",,"Carlton Street",,"42.348846","-71.108581","Brookline","Mountfort St @ Carlton St","Mountfort Street"
"6111",,"Ocean Avenue",,"42.508133","-70.891351","Salem","Lafayette St @ Ocean Ave","Lafayette Street"
"24716",,,,"42.411567","-70.996415","Revere","VFW Pkwy opp Wonderland Market Place","Veterans Of Foreign Wars Parkway"
"111220",,,,"42.266442","-70.853888","Hull","Rockland Cir from Park to Rockland House Rd (FLAG)","Rockland Circle"
"5255",,"Church Street",,"42.288168","-71.145032","Boston","Centre St @ Church St","Centre Street"
"25969",,,,"42.443715","-71.072003","Melrose","Pleasant St @ Stone Pl","Pleasant Street"
"4574",,"Technology Drive",,"42.521622","-70.966488","Peabody","5 Centennial Dr","Centennial Drive"
"7961",,"Heard Road",,"42.43183","-71.17617","Arlington","Forest St @ Heard Rd","Forest Street"
"3210",,"Beach Street",,"42.276116","-71.013813","Quincy","Billings Rd @ Beach St","Billings Road"
"5725",,"Crescent Avenue",,"42.395377","-71.029581","Chelsea","Broadway @ Crescent Ave","Broadway"
"78988",,"Westview Street",,"42.475275","-71.253381","Lexington","Hartwell Ave opp Westview St","Hartwell Avenue"
"74624","Silver Line Way and Starboard Way, Boston, MA 02210",,"Silver Line Way after Manulife Building - Silver Line - Airport/Design Center/Chelsea","42.347056","-71.038814","Boston","Silver Line Way after Manulife Building","Silver Line Way"
"3405",,"Furnace Avenue",,"42.245243","-71.027985","Quincy","Copeland St @ Furnace Ave","Copeland Street"
"78621",,"Woodcliff Drive",,"42.389324","-71.223303","Waltham","Forest St opp Woodcliff Dr","Forest Street"
"3286",,"Samosett Avenue",,"42.261276","-70.99311","Quincy","Sea St @ Samoset Ave","Sea Street"
"11545",,"Lee Street Extension",,"42.325809","-71.140476","Brookline","Lee St @ Boylston St","Lee Street"
"door-state-exchange",,,"State - Congress St (Exchange Place)","42.358413","-71.056499","Boston","State - Congress St (Exchange Place)",
"1216",,"Dimock Street",,"42.319449","-71.09816","Boston","Columbus Ave @ Dimock St","Columbus Avenue"
"2634",,"Curtis Street",,"42.403375","-71.127338","Somerville","Broadway @ Curtis St","Broadway"
"door-cntsq-prospect",,,"Central - Prospect St","42.365778","-71.104131","Cambridge","Central - Prospect St",
"7340",,,,"42.510149","-70.989516","Lynn","Lynnfield St opp Lookout Terr","Lynnfield Street"
"3126",,"West Squantum Street",,"42.275935","-71.027749","Quincy","E Squantum St @ Hancock St","East Squantum Street"
"1154",,"Bromley Street",,"42.325366","-71.099579","Boston","Heath St @ Bromley St","Heath Street"
"386",,"Crawford Street",,"42.310509","-71.083162","Boston","Warren St @ Sunderland St","Warren Street"
"node-tumnl-trenbstairs-lobby",,,"Tufts Medical Center - Top of stairs for Oak Grove, Tremont Street",,,"Boston","Tufts Medical Center",
"4440",,"Center Street",,"42.217611","-70.938869","Weymouth","Broad St @ Center St","Broad Street"
"4523",,"Walden Street",,"42.460699","-70.967777","Lynn","Western Ave @ Walden St","Western Avenue"
"1160",,"Moraine Street",,"42.319618","-71.111729","Boston","S Huntington Ave @ Moraine St","South Huntington Avenue"
"1578",,"Winthrop Street",,"42.323491","-71.076306","Boston","Blue Hill Ave @ Winthrop St","Blue Hill Avenue"
"5733",,"Eutaw Street",,"42.378716","-71.039287","Boston","Meridian St @ Eutaw St","Meridian Street"
"3984",,"Emery Street",,"42.125597","-71.011692","Holbrook","S Franklin St @ Upland St","South Franklin Street"
"1680",,"Parker Street",,"42.463484","-71.173918","Woburn","Cambridge Rd opp Parker St","Cambridge Street"
"node-fldcr-ashstair-platform",,,"Fields Corner - Top of stairs for Ashmont platform",,,"Boston","Fields Corner",
"9319",,"Middlesex Avenue",,"42.406006","-71.081695","Medford","Fellsway @ Middlesex Ave - Wellington Circle","Fellsway"
"17401",,"Elm Hill Avenue",,"42.307515","-71.089263","Boston","Seaver St opp Elm Hill Ave","Seaver Street"
"3860",,"River Street",,"42.219842","-71.003752","Braintree","Washington St opp River St","Washington Street"
"6176",,"Leach Street",,"42.51105","-70.891772","Salem","Lafayette St @ Leach St","Lafayette Street"
"door-north-valenti",,,"North Station - Valenti Way","42.364652","-71.059541","Boston","North Station - Valenti Way",
"4941",,"Lynn Street Court",,"42.515687","-70.945017","Peabody","23 Lynn St","Lynn Street"
"8312",,"Dell Avenue",,"42.424976","-71.094619","Medford","205 Fellsway W","Fellsway West"
"6773",,"Andrew Street",,"42.462891","-70.948957","Lynn","Market St @ Andrew St","Market Street"
"12888",,"Union Street",,"42.41437","-71.109877","Medford","Mystic Ave opp Union St","Mystic Avenue"
"7902",,"Simonds Road",,"42.466503","-71.242312","Lexington","Bedford St opp Simonds Rd","Bedford Street"
"node-856-platform",,,"Back Bay - Bottom of Tracks 5-7 elevator",,,"Boston","Back Bay",
"4575",,"Technology Drive",,"42.521354","-70.964323","Peabody","Centennial Dr @ Technology Dr","Centennial Drive"
"1296",,"Euston Road",,"42.344593","-71.144416","Boston","Washington St opp Euston Rd","Washington Street"
"3152",,"Huckins Avenue",,"42.297041","-71.017445","Quincy","E Squantum St opp Essex St","East Squantum Street"
"10425",,,,"42.274382","-71.116781","Boston","American Legion Hwy opp Shopping Mall","American Legion Highway"
"5742",,"Havre Street",,"42.372502","-71.038958","Boston","Meridian St @ Havre St","Meridian Street"
"2625",,"Hancock Street",,"42.389718","-71.117016","Somerville","Elm St @ Hancock St","Elm Street"
"1095",,"Oakland Street",,"42.3526","-71.160686","Boston","Faneuil St @ Oakland St","Faneuil Street"
"node-917-lobby",,,"Prudential - Bottom of elevator between Prudential Center and lobby",,,"Boston","Prudential",
"75",,"Princeton Avenue",,"42.358941","-71.09363","Cambridge","84 Massachusetts Ave","Massachusetts Avenue"
"24619",,"Incinerator Road",,"42.253892","-71.16643","Dedham","Washington St @ Incinerator Rd","Washington Street"
"1181",,"Oakland Street",,"42.323462","-71.0896","Boston","Washington St @ Oakland St","Washington Street"
"471",,,,"42.307874","-71.082884","Boston","Washington St @ Blue Hill Ave","Washington Street"
"4008",,"Chandler Street",,"42.151512","-71.008218","Holbrook","S Franklin St opp Chandler St","South Franklin Street"
"3308",,,,"42.250419","-70.963708","Quincy","O'Brien Towers",
"node-aport-wbpaidstairs-bridge",,,"Airport - Top of stairs on Bowdoin, Bremen Street side",,,"Boston","Airport",
"node-jfk-crcolstair-columbia",,,"JFK/UMass - Top of stairs between Columbia Road and Old Colony Road, Commuter Rail, busway","42.321367","-71.052215","Boston","JFK/UMass",
"node-smmnl-farepaid",,,"Shawmut - Paid side of fare gates",,,"Boston","Shawmut",
"795",,"Poplar Street",,"42.2857","-71.129095","Boston","Corinth St @ Washington St","Corinth Street"
"5648",,"Everett Avenue",,"42.395052","-71.039983","Chelsea","Spruce St @ Everett Ave","Spruce Street"
"1526",,"Boylston Street",,"42.331939","-71.116843","Brookline","Washington St @ Pearl St","Washington Street"
"8196",,"Commonwealth Avenue",,"42.338661","-71.206955","Newton","Walnut St @ Commonwealth Ave","Walnut Street"
"4462",,"Cherry Hill Avenue",,"42.509142","-70.911147","Salem","Highland Ave @ Cherry Hill Ave","Highland Avenue"
"4781",,"Winthrop Avenue",,"42.482127","-70.889103","Marblehead","Humphrey St @ Seaview Ave","Humphrey Street"
"2118",,"Cushing Street",,"42.374923","-71.151511","Cambridge","Belmont St @ Cushing St","Belmont Street"
"2932",,"Glendale Street",,"42.312835","-71.068184","Boston","Columbia Rd @ Glendale St","Columbia Road"
"node-948-lobby",,,"Kenmore - Bottom of Commonwealth Avenue elevator",,,"Boston","Kenmore",
"1218",,"Ritchie Street",,"42.32231","-71.098264","Boston","Columbus Ave @ Ritchie St","Columbus Avenue"
"44541",,"Pope Street",,"42.518683","-70.908598","Salem","Boston St @ Pope St","Boston Street"
"node-897-street",,,"North Quincy - Bottom of elevator between Hancock Street and lobby",,,"Quincy","North Quincy",
"3458",,"South Central Avenue",,"42.261898","-71.024802","Quincy","Beale St @ N Central Ave","Beale Street"
"7126",,"Rantoul Street",,"42.554402","-70.881493","Beverly","Elliot St @ Rantoul St","Elliott Street"
"door-forhl-lower",,,"Forest Hills - Hyde Park Ave, Franklin Park, Zoo, Parking","42.300572","-71.113659","Boston","Forest Hills - Hyde Park Ave, Franklin Park, Zoo, Parking",
"9061",,"Spruce Street",,"42.433812","-71.043512","Malden","Salem St @ Spruce St","Salem Street"
"4449",,"Meeting House Lane",,"42.227628","-70.946904","Weymouth","Opp 69 Church St","Church Street"
"node-127-busway",,,"Forest Hills - Bottom of north lower busway escalator",,,"Boston","Forest Hills",
"node-sstat-918stair-lobby",,,"South Station - Top of stairs for SL1/SL2/SL3 platform",,,"Boston","South Station",
"3716",,"Edgemont Road",,"42.227189","-70.969541","Braintree","155 Quincy Ave","Quincy Avenue"
"5251",,"Hewlett Street",,"42.292235","-71.138693","Boston","1467 Centre St opp Hewlett St","Centre Street"
"19573",,"Frances Street",,"42.449291","-71.07053","Melrose","Pleasant St opp Frances St","Pleasant Street"
"5297",,"Marion Street",,"42.403599","-71.107303","Medford","Main St @ Marion St","Main Street"
"South Acton",,,"South Acton - Commuter Rail","42.460375","-71.457744","Acton","South Acton",
"7617",,"James Street",,"42.357175","-71.238613","Newton","River St @ James St","River Street"
"3622",,"Evans Street",,"42.24261","-70.959234","Weymouth","Bridge St opp Evans St","Bridge Street"
"door-asmnl-rdexits",,,"Ashmont - Buses","42.284449","-71.063865","Boston","Ashmont - Buses",
"node-jfk-braganstair-lobby",,,"JFK/UMass - Top of northern stairs between Braintree, Alewife platform and lobby",,,"Boston","JFK/UMass",
"5299",,"Bow Street",,"42.400703","-71.104596","Medford","Main St @ Bow St","Main Street"
"node-896-platform",,,"Quincy Center - Bottom of Elevator 896",,,"Quincy","Quincy Center",
"70059",,,"Wonderland - Blue Line - Bowdoin","42.413513","-70.991737","Revere","Wonderland",
"70087",,,"Savin Hill - Red Line - Ashmont","42.31129","-71.053331","Boston","Savin Hill",
"place-FB-0230","9 Rockwood Rd, Norfolk, MA 02056",,,"42.120694","-71.325217","Norfolk","Norfolk",
"4048",,"McAuliffe Road",,"42.177387","-71.031958","Randolph","North St @ McAuliffe Rd","North Street"
"3644",,"Parnell Street",,"42.254364","-70.934318","Weymouth","River St @ Parnell St","River Street"
"3470",,"Forbes Road",,"42.262584","-71.061308","Milton","Adams St @ Forbes Rd","Adams Street"
"6700",,"Kings Hill Drive",,"42.468099","-70.985916","Lynn","O'Callaghan Way @ Kings Hill Dr","O'Callaghan Way"
"node-939-entrance",,,"Courthouse - Top of elevator between Thomson Place and lobby",,,"Boston","Courthouse",
"247","Northern Ave and Harbor St, Boston, MA 02210","Harbor Street","Northern Ave @ Harbor St - Silver Line - SL2 Design Center","42.346634","-71.035301","Boston","Northern Ave @ Harbor St","Northern Avenue"
"3632",,"Sumner Street",,"42.248996","-70.986294","Quincy","Washington St @ Edison St","Washington Street"
"8284",,"Nonantum Road",,"42.364331","-71.186377","Watertown","Watertown St @ Galen St","Watertown Street"
"45211",,,,"42.456007","-70.973048","Lynn","Western Ave opp Ida St","Western Avenue"
"node-434-entrance",,,"Maverick - Top of escalator from Maverick Square to lobby",,,"Boston","Maverick",
"8907",,"Lincoln Street",,"42.39093","-71.238814","Waltham","Lexington St opp Lincoln St","Lexington Street"
"door-newtn-hyde",,,"Newton Highlands - Hyde St","42.323468","-71.20433","Newton","Newton Highlands - Hyde St",
"8533",,"Ramp - Parker Street To Rt 9 Westbound",,"42.319313","-71.194398","Newton","Parker St @ Boylston St","Parker Street"
"node-mlmnl-exitstair-platform",,,"Malden Center - Top of stairs to exit-only gates",,,"Malden","Malden Center",
"61916",,"Sears Road",,"42.318332","-71.140678","Brookline","Lee St @ Sears Rd","Lee Street"
"node-144-platform",,,"Back Bay - Bottom of Track 2 escalator",,,"Boston","Back Bay",
"2201",,"George Street",,"42.411792","-71.183709","Arlington","West Service Rd @ Cedar St","Frontage Road"
"7105",,"Frankwood Avenue",,"42.577621","-70.890031","Beverly","Dodge St opp Shopping Ctr","Dodge Street"
"11384",,"Stuart Street",,"42.347346","-71.075956","Boston","Dartmouth St @ Back Bay Sta","Dartmouth Street"
"door-chncl-ogessex",,,"Chinatown - Washington St, Essex St","42.352252","-71.062519","Boston","Chinatown - Washington St, Essex St",
"2913",,"Quincy Street",,"42.311271","-71.070413","Boston","Columbia Rd @ Quincy St","Columbia Road"
"9216",,"Mountain Avenue",,"42.430716","-71.067523","Malden","Main St @ Mountain Ave","Main Street"
"2784",,"Gordon Avenue",,"42.25641","-71.125917","Boston","11 Summer St","Summer Street"
"node-sstat-400stair-middle",,,"South Station - Top of stairs for Ashmont/Braintree",,,"Boston","South Station",
"node-wondl-nshoreplazastairs-plaza",,,"Wonderland - Top of Revere Beach Plaza stairs from North Shore Road",,,"Revere","Wonderland",
"111640",,,,"42.13982","-71.148314","Canton","Cobbs Corner, Canton",
"7863",,"Varnum Park",,"42.383707","-71.239673","Waltham","45 Dale St","Dale Street"
"8159",,,,"42.333477","-71.207751","Newton","796 Walnut St","Walnut Street"
"4439",,"Middle Street",,"42.217546","-70.936769","Weymouth","Broad St @ Middle St","Broad Street"
"node-bbsta-lower-farepaid",,,"Back Bay - Paid side of fare gates",,,"Boston","Back Bay",
"door-bbsta-dartmn",,,"Back Bay - Dartmouth St (North)","42.347584","-71.0759","Boston","Back Bay - Dartmouth St (North)",
"4591",,"Centennial Drive",,"42.519469","-70.974625","Peabody","First Ave opp Centennial Dr","First Avenue"
"2438",,"Concord Avenue",,"42.37497","-71.102529","Somerville","Beacon St opp Concord Ave","Beacon Street"
"2066",,"Brattle Street",,"42.375348","-71.142971","Cambridge","Mt Auburn St opp Brattle St","Mount Auburn Street"
"6123",,"Oak View Avenue",,"42.490034","-70.896583","Salem","446 Loring Ave","Loring Avenue"
"2839",,"Oak Street",,"42.380038","-71.069646","Boston","Main St @ Oak St","Main Street"
"5911",,"Lebanon Street",,"42.453508","-71.05947","Melrose","Grove St @ Lebanon St","Grove Street"
"node-416-platform",,,"Courthouse - Bottom of escalator from South Station platform to exit-only gates",,,"Boston","Courthouse",
"39683",,"Hawthorne Road",,"42.224587","-70.99652","Braintree","Elm St @ Adams St","Elm Street"
"4399",,"Otis Street",,"42.258244","-71.049869","Milton","Brook Rd @ Otis St","Brook Road"
"3613",,"North Street",,"42.243924","-70.943667","Weymouth","Bridge St @ North St","Bridge Street"
"node-prmnl-wbstair-lobby",,,"Prudential - Top of Heath Street stairs",,,"Boston","Prudential",
"9272",,"Wave Avenue",,"42.511417","-71.069558","Wakefield","Pleasant St @ Wave Ave","Pleasant Street"
"1057",,"Howard Street",,"42.363156","-71.110605","Cambridge","River St @ Kelly Rd","River Street"
"49801",,,,"42.512578","-71.244566","Bedford","28 Crosby Dr - Intel","Crosby Drive"
"door-rugg-columbus",,,"Ruggles - Columbus Ave, Tremont St","42.335873","-71.088906","Boston","Ruggles - Columbus Ave, Tremont St",
"2171",,"Concord Avenue",,"42.378295","-71.123583","Cambridge","Garden St @ Concord Ave","Garden Street"
"1121",,"Perry Street",,"42.362343","-71.107445","Cambridge","Magazine St @ Perry St","Magazine Street"
"25991",,"Lindenwood Road",,"42.484395","-71.100291","Stoneham","Main St @ Lindenwood Rd","Main Street"
"6153",,"Danvers Road",,"42.482024","-70.914154","Swampscott","Essex St @ Eastman Ave","Essex Street"
"4343",,"Reedsdale Road",,"42.247509","-71.06751","Milton","Pleasant St @ Reedsdale Rd","Pleasant Street"
"70160",,,"Riverside - Green Line - Park Street & North","42.337283","-71.252385","Newton","Riverside",
"7490",,"Scott Drive",,"42.477135","-71.039518","Saugus","Main St @ Scott Dr","Main Street"
"1137",,"Mozart Street",,"42.322684","-71.104662","Boston","Centre St @ Mozart St","Centre Street"
"15977",,"Melbourne Avenue",,"42.454319","-71.076884","Melrose","Wyoming Ave @ Whittier St","West Wyoming Avenue"
"5394",,"Main Street",,"42.418708","-71.065427","Malden","Cross St @ Main St","Cross Street"
"8963",,"Roberts Place",,"42.239891","-71.140687","Boston","W Milton St @ W Milton Pl","West Milton Street"
"6542",,"Washington Street",,"42.350845","-71.062868","Boston","Kneeland St @ Washington St","Kneeland Street"
"2546",,"Beacon Street",,"42.378339","-71.10628","Somerville","Washington St @ Beacon St","Washington Street"
"node-436-platform",,,"Arlington - Bottom of westbound escalator",,,"Boston","Arlington",
"36844",,,,"42.215201","-70.921603","Weymouth","High St @ Commercial St","High Street"
"80619",,"Waldo Way",,"42.222342","-71.18739","Westwood","Washington St @ Waldo Way","Washington Street"
"70265",,,"Butler - Mattapan Trolley - Mattapan","42.272343","-71.062585","Boston","Butler",
"5045",,,,"42.39621","-71.041468","Chelsea","Market Basket",
"4770",,,,"42.480571","-70.903739","Swampscott","383 Paradise Rd","Paradise Road"
"5391",,"Walnut Street",,"42.42079","-71.060183","Malden","Cross St @ Walnut St","Cross Street"
"11835",,"Buckminster Road",,"42.332315","-71.146793","Brookline","Chestnut Hill Ave opp Buckminster Rd","Chestnut Hill Avenue"
"3235",,"Greene Street",,"42.267835","-71.014098","Quincy","Elm Ave opp Greene St","Elm Avenue"
"262",,"H Street",,"42.331302","-71.041552","Boston","E 8th St @ H St","East Eighth Street"
"115",,"Court House Way",,"42.353418","-71.046815","Boston","Northern Ave @ Federal Courthouse","Northern Avenue"
"109914",,"Tafts Avenue",,"42.36011","-70.971369","Winthrop","Shirley St @ Tafts Ave","Shirley Street"
"4189",,"Warren Street",,"42.165748","-71.043483","Randolph","N Main St @ Warren St","North Main Street"
"4604",,"Liberty Hill Avenue",,"42.529897","-70.906375","Salem","North St @ Liberty Hill Ave","North Street"
"49902",,"Cedar Street",,"42.49486","-71.124292","Woburn","295 Washington St","Washington Street"
"5868",,"Marion Street",,"42.376029","-71.035676","Boston","Bennington St @ Marion St","Bennington Street"
"4049",,"Dyer Avenue",,"42.176786","-71.033227","Randolph","North St @ Dyer Ave","North Street"
"node-sstat-411stair-lobby",,,"South Station - Top of stairs for SL1/SL2/SL3 platform",,,"Boston","South Station",
"834",,"Temple Street",,"42.286439","-71.170052","Boston","Lasell St @ Temple St","Lasell Street"
"6460",,"Rowe Street",,"42.280681","-71.120534","Boston","Cummins Hwy @ Rowe St","Cummins Highway"
"1510",,"Adams Street",,"42.308815","-71.064326","Boston","Bowdoin St @ Hendry St","Bowdoin Street"
"4541",,"Buchanan Circle",,"42.489069","-70.93701","Lynn","Western Ave @ Buchanan Circle","Western Avenue"
"56618",,"East Hoyle Street",,"42.187581","-71.2028","Norwood","Washington St @ East Hoyle St","Washington Street"
"1268",,"Shepard Street",,"42.348224","-71.149882","Boston","Washington St @ Shepard St","Washington Street"
"70154",,,"Copley - Green Line - Park Street & North","42.349871","-71.078049","Boston","Copley",
"door-dwnxg-temple",,,"Downtown Crossing - Temple Place, Lafaytette Place","42.354877","-71.061547","Boston","Downtown Crossing - Temple Place, Lafaytette Place",
"3658",,"Prospect Hill Drive",,"42.254677","-70.932716","Weymouth","River St opp Prospect Hill Dr","River Street"
"7343",,"Cumberland Circle",,"42.50794","-70.985862","Lynn","724 Lynnfield St","Lynnfield Street"
"43011",,"Scanlon Drive",,"42.201087","-71.06251","Randolph","N Main St @ Russ St","North Main Street"
"4663",,"Rainbow Terrace",,"42.548599","-70.921114","Danvers","Water St @ Rainbow Terr","Water Street"
"4188",,,,"42.166894","-71.044223","Randolph","N Main St @ Depot St","North Main Street"
"9085",,"Highview Avenue",,"42.459017","-71.047955","Melrose","Upham St @ Highview Ave","Upham Street"
"4041",,"Isabell Circle",,"42.189476","-71.030153","Randolph","North St @ Isabell Circle","North Street"
"1257",,"Prentiss Street",,"42.333071","-71.092378","Boston","Tremont St @ Prentiss St","Tremont Street"
"9074",,"Greenwood Street",,"42.468688","-71.069631","Melrose","Franklin St opp Greenwood St","Franklin Street"
"2054",,"Boylston Street",,"42.370002","-71.170729","Watertown","Mt Auburn St @ Boylston St","Mount Auburn Street"
"3647",,"Bradmere Way",,"42.250579","-70.938075","Weymouth","Neck St @ Bradmere Way","Neck Street"
"South Station-05",,,"South Station - Commuter Rail - Track 5","42.351412","-71.055303","Boston","South Station",
"4156",,"Highland Street",,"42.240405","-71.069575","Milton","Randolph Ave @ Highland St","Randolph Avenue"
"7762",,"Lincoln Street",,"42.447959","-71.237211","Lexington","Worthen Rd @ Hayden Rec Ctr","Worthen Road"
"9288",,"Drury Lane",,"42.519294","-71.070165","Wakefield","Lowell St opp Drury Ln","Lowell Street"
"4242",,"Selwyn Road",,"42.148094","-71.042987","Randolph","S Main St opp Selwyn Rd","South Main Street"
"4768",,"Longwood Drive",,"42.477874","-70.908098","Swampscott","Paradise Rd opp Longwood Dr","Paradise Road"
"8268",,"Arlington Street",,"42.436319","-71.155374","Winchester","Cambridge St @ Arlington St","Cambridge Street"
"1541",,"Randolph Road",,"42.32451","-71.159081","Brookline","Boylston St @ Randolph Rd","Boylston Street"
"3660",,"Pearl Street",,"42.242591","-70.947793","Weymouth","Sea St @ Pearl St","Sea Street"
"9021",,"Home Street",,"42.434125","-71.039413","Malden","Salem St @ Home St - Broadway Sq","Salem Street"
"1300",,"Shepard Street",,"42.34813","-71.149638","Boston","Washington St opp Shepard St","Washington Street"
"7337",,"Tuscan Road",,"42.50594","-70.982749","Lynn","Lynnfield St @ Tuscan Rd","Lynnfield Street"
"9211",,"Leonard Street",,"42.434984","-71.067819","Malden","Main St @ Winter St","Main Street"
"36841",,"Cedar Street",,"42.214864","-70.920606","Weymouth","High St @ Cedar St","High Street"
"4285",,"Liberty Street",,"42.174703","-71.048328","Randolph","N Main St @ Liberty St","North Main Street"
"13403",,,,"42.248427","-71.020566","Quincy","Opp 254 Quarry St","Quarry Street"
"2623",,"Cedar Street",,"42.387873","-71.1153","Somerville","Elm St @ Cedar St","Elm Street"
"4526",,,,"42.409969","-71.001815","Revere","American Legion Hwy @ Bell Circle","American Legion Highway"
"2079",,"Huron Avenue",,"42.378329","-71.14705","Cambridge","Aberdeen Ave @ Huron Ave","Aberdeen Avenue"
"70111",,,"South Street - Green Line - (B) Boston College","42.339581","-71.157499","Boston","South Street",
"1291",,"Fairbanks Street",,"42.338364","-71.131336","Brookline","Washington St @ Fairbanks St","Washington Street"
"5837",,"Broadway",,"42.412593","-71.010941","Revere","Proctor Ave @ Broadway","Proctor Avenue"
"node-masta-unpaid-lobby",,,"Massachusetts Avenue - Unpaid lobby",,,"Boston","Massachusetts Avenue",
"12432",,"Ramp - Frontage Rd To Rt 2 Westbound",,"42.408189","-71.169767","Arlington","West Service Rd @ Spring St","Frontage Road"
"7657",,"James Street",,"42.357142","-71.238343","Newton","River St @ James St","River Street"
"6808",,"Parkland Avenue",,"42.476824","-70.970884","Lynn","opp 219 Linwood St","Linwood Street"
"1939",,"Greenough Avenue",,"42.309949","-71.115345","Boston","775 Centre St","Centre Street"
"88344",,"Old South Street",,"42.364384","-71.258565","Waltham","South St @ Brandeis University","South Street"
"70258",,,"Back of the Hill - Green Line - Park Street & North","42.329399","-71.110931","Boston","Back of the Hill",
"1338",,"Rockland Street",,"42.322364","-71.084855","Boston","Walnut Ave @ Rockland St","Walnut Avenue"
"9170168",,,"Newton Highlands - Green Line Eastbound Shuttle","42.32166","-71.206241","Newton","Newton Highlands",
"7788",,"Hillcrest Street",,"42.404236","-71.243672","Waltham","Lake St opp Shore Rd","Lake Street"
"76592",,"Crescent Street",,"42.361622","-71.23902","Waltham","Moody St @ Derby St","Moody Street"
"node-kencl-beacstair-lobby",,,"Kenmore - Bottom of Beacon Street stairs",,,"Boston","Kenmore",
"1026",,"Dighton Street",,"42.347693","-71.153921","Boston","Chestnut Hill Ave @ Veronica Smith Ctr","Chestnut Hill Avenue"
"2074",,"Harvard Busway",,"42.373051","-71.122407","Cambridge","Mt Auburn St @ University Rd","Mount Auburn Street"
"2362",,"Garrison Road",,"42.415001","-71.150834","Arlington","Medford St @ Massachusetts Ave","Medford Street"
"node-cntsq-prospectstair-platform",,,"Central - Bottom of stairs for Prospect St",,,"Cambridge","Central",
"16403",,"Neponset Avenue",,"42.247466","-71.117607","Boston","Summit St @ Neponset Ave","Summit Street"
"176",,"Stuart Street",,"42.347343","-71.076035","Boston","Dartmouth St opp Back Bay Sta","Dartmouth Street"
"77376",,"Newton Street",,"42.366705","-71.231317","Waltham","High St @ Newton St","High Street"
"3726",,,,"42.238599","-70.983246","Quincy","Quincy Ave near Southern Artery","Quincy Avenue"
"2282",,"Medford Street",,"42.414833","-71.151369","Arlington","Massachusetts Ave @ Medford St","Massachusetts Avenue"
"780",,"Lorette Street",,"42.278725","-71.159427","Boston","Centre St @ Saint Theresa Ave","Centre Street"
"node-forhl-slowbusstairs-lobby",,,"Forest Hills - Top of south lower busway stairs",,,"Boston","Forest Hills",
"8646",,"Curve Street",,"42.430727","-71.207805","Lexington","Massachusetts Ave @ Gibson Rd","Massachusetts Avenue"
"4459",,"Proctor Street",,"42.513247","-70.907433","Salem","Highland Ave @ Proctor St","Highland Avenue"
"7583",,"Forest Street",,"42.470164","-71.0316","Saugus","288 Main St","Main Street"
"7806",,"Bridge Street",,"42.365201","-71.204297","Newton","California St @ Bridge St","California Street"
"4573",,"First Avenue",,"42.519613","-70.974484","Peabody","Centennial Dr @ First Ave","Fourth Street"
"151",,"Dorchester Avenue",,"42.342664","-71.056949","Boston","W Broadway @ Broadway Station","West Broadway"
"2861",,"Monument Street",,"42.378055","-71.059733","Boston","121 Bunker Hill St opp Lexington St","Bunker Hill Street"
"384",,"Nazing Street",,"42.305939","-71.08439","Boston","Blue Hill Ave @ Pasadena Rd","Blue Hill Avenue"
"5780",,"Beach Street",,"42.408607","-70.991919","Revere","Ocean Ave @ Beach St","Ocean Avenue"
"2550",,"Eliot Street",,"42.371324","-71.12127","Cambridge","JFK St @ Eliot St","John F Kennedy Street"
"3049",,"Merrymount Avenue",,"42.26565","-71.01373","Quincy","Hancock St @ Merrymount Ave","Hancock Street"
"7234",,"Smith Street",,"42.467024","-70.941538","Lynn","Union St @ Joyce St","Union Street"
"node-harsq-sbstair-nb",,,"Harvard - Top of stairs between Red Line platforms",,,"Cambridge","Harvard",
"4433",,"Unnamed Road",,"42.219617","-70.949665","Weymouth","Essex St @ Harrington Circle","Essex Street"
"7263",,"Broadway",,"42.487768","-70.959411","Lynn","Euclid Ave @ Broadway","Euclid Avenue"
"10603",,"Rosecliff Street",,"42.282287","-71.132671","Boston","Washington St @ Durnell Ave","Washington Street"
"4549",,"First Street",,"42.506077","-70.918649","Salem","Highland Ave @ First St","Highland Avenue"
"node-sstat-390stair-rl",,,"South Station - Bottom of stairs for Ashmont/Braintree",,,"Boston","South Station",
"86178",,"Old Bedford Road",,"42.457495","-71.28944","Lincoln","Hanscom Field Dr @ Old Bedford Rd","Hanscom Drive"
"4787",,"Rose Avenue",,"42.486794","-70.883794","Marblehead","Humphrey St @ Ware Ln","Humphrey Street"
"1281",,"Greenough Circle",,"42.335129","-71.124667","Brookline","Washington St @ Greenough Circle","Washington Street"
"6252",,"Conant Street",,"42.419713","-71.013275","Revere","Malden St @ Conant St","Malden Street"
"5542",,"Irving Street",,"42.413015","-71.023373","Revere","Park Ave @ Irving St","Park Avenue"
"71",,"Bigelow Street",,"42.366717","-71.106102","Cambridge","Massachusetts Ave @ Pleasant St","Massachusetts Avenue"
"6134",,,,"42.475718","-70.926554","Lynn","13 Essex St","Essex Street"
"node-810-platform",,,"Quincy Center - Bottom of Elevator 810",,,"Quincy","Quincy Center",
"9095",,"Argyle Street",,"42.454163","-71.05506","Melrose","Grove St opp Argyle St","Grove Street"
"1001",,,,"42.307661","-71.169522","Brookline","Newton St @ Arlington Rd","Newton Street"
"5881",,"Busway",,"42.387061","-71.00575","Boston","Bennington St @ Antrim St","Bennington Street"
"8479",,"Van Roosen Road",,"42.290073","-71.189827","Newton","Sawmill Brook Pkwy @ Van Roosen Rd","Sawmill Brook Parkway"
"node-947-lobby",,,"Savin Hill - Top of elevator between Sydney Street and lobby",,,"Boston","Savin Hill",
"node-grnst-844-lobby",,,"Green Street - Top of Elevator 844",,,"Boston","Green Street",
"1479",,"Jerome Street",,"42.31491","-71.065813","Boston","Hancock St @ Jerome St","Hancock Street"
"node-308-lobby",,,"Sullivan Square - Top of Escalator 308",,,"Boston","Sullivan Square",
"86971",,,,"42.373876","-71.236394","Waltham","Moody St @ Carter St","Moody Street"
"1616",,"Crown Point Drive",,"42.257411","-71.146391","Boston","Margaretta Dr @ Crown Point Dr","Margaretta Drive"
"door-qnctr-burgin",,,"Quincy Center - Burgin Parkway","42.251403","-71.005508","Quincy","Quincy Center - Burgin Parkway",
"70271",,,"Valley Road - Mattapan Trolley - Mattapan","42.268322","-71.081568","Milton","Valley Road",
"18924",,,,"42.406948","-71.25671","Waltham","404 Wyman St","Wyman Street"
"2920",,"Seaver Street",,"42.30431","-71.082426","Boston","Columbia Rd @ Seaver St","Columbia Road"
"38618",,"Rockhill Street",,"42.168005","-71.211719","Norwood","1407 Washington St @ DPW Yard","Washington Street"
"49835",,"Dale Street",,"42.486532","-71.128817","Woburn","Pine St opp Dale St","Pine Street"
"5797",,"Walnut Avenue",,"42.409189","-70.99676","Revere","Beach St @ Walnut Ave","Beach Street"
"6284",,"Springdale Street",,"42.434374","-71.030502","Malden","Beach St @ Clapp St","Beach Street"
"5628",,"Garfield Avenue",,"42.405285","-71.029993","Chelsea","Sagamore Ave @ Garfield Ave","Sagamore Avenue"
"2897",,"Moreland Street",,"42.399733","-71.095532","Somerville","Mystic Ave @ Moreland St","Mystic Avenue"
"26495",,"Ashmore Road",,"42.293049","-71.117796","Boston","265 Hyde Park Ave opp Eldridge Rd","Hyde Park Avenue"
"3345",,"California Avenue",,"42.245524","-71.031757","Quincy","Willard St @ Copeland St","Willard Street"
"7523",,"Davis Court",,"42.458528","-71.019272","Saugus","Vine St @ Beech St","Vine Street"
"node-masta-fareunpaid",,,"Massachusetts Avenue - Unpaid side of fare gates",,,"Boston","Massachusetts Avenue",
"70091",,,"Shawmut - Red Line - Ashmont","42.293126","-71.065738","Boston","Shawmut",
"31257","Northern Ave and Tide St, Boston, MA 02210","Tide Street","Northern Ave @ Tide St - Silver Line - SL2 South Station","42.345192","-71.031996","Boston","Northern Ave @ Tide St","Northern Avenue"
"3719",,"Harbor Villa Avenue",,"42.23048","-70.972503","Braintree","Quincy Ave @ Harbor Villa Ave","Quincy Avenue"
"door-butlr-branchfield",,,"Butler - Branchfield St, Butler St","42.272469","-71.062579","Boston","Butler - Branchfield St, Butler St",
"621",,"Grove Street",,"42.261087","-71.157076","Boston","Washington St @ Grove St","Washington Street"
"4234",,,,"42.134949","-71.039677","Avon","40 N Main St","North Main Street"
"26500",,"Cummins Highway",,"42.278921","-71.116588","Boston","American Legion Hwy @ Cummins Hwy","American Legion Highway"
"node-orhte-sara-farepaid",,,"Orient Heights - Paid side of fare gates",,,"Boston","Orient Heights",
"4581",,,,"42.538654","-70.949024","Peabody","Essex Ctr Dr @ Essex Green Dr",
"5607",,"Everett Avenue",,"42.391656","-71.038396","Chelsea","Third St @ Chestnut St","Third Street"
"6170",,"Rainbow Terrace",,"42.502632","-70.893544","Salem","Loring Ave @ Rainbow Terr","Loring Avenue"
"11609",,"Oakview Terrace",,"42.320086","-71.111338","Boston","Centre St @ S Huntington Ave","Centre Street"
"3032",,"Carruth Street",,"42.259227","-71.009528","Quincy","Hancock St @ Carruth St","Hancock Street"
"8250",,"Crawford Drive",,"42.464222","-71.174707","Woburn","223 Cambridge Rd opp Crawford Rd","Cambridge Street"
"9026",,"Rockwell Street",,"42.432769","-71.048239","Malden","Salem St @ Rockwell St","Salem Street"
"109829",,"Revere Street",,"42.386455","-70.975745","Winthrop","Crest Ave @ Highland Ave","Crest Avenue"
"node-qnctr-rdstair-entrance",,,"Quincy Center - Stairs lobby level",,,"Quincy","Quincy Center",
"2719",,"Indiana Avenue",,"42.387399","-71.0825","Somerville","Broadway @ Indiana Ave","Broadway"
"node-151-street",,,"Prudential - Top of escalator from lobby to Prudential Center",,,"Boston","Prudential",
"4451",,"Western Avenue",,"42.462633","-70.965328","Lynn","N Common St @ Western Ave","Market Square"
"1058",,,,"42.36385","-71.108586","Cambridge","River St @ Pleasant St","River Street"
"4456",,"Monroe Street",,"42.520157","-70.902724","Salem","Essex St @ Monroe St","Essex Street"
"node-brdwy-fareunpaid",,,"Broadway - Unpaid side of fare gates",,,"Boston","Broadway",
"node-harsq-sbramp-platform",,,"Harvard - Ramp between Ashmont/Braintree platform and fare gates",,,"Cambridge","Harvard",
"node-knncl-frontnbstair-entrance",,,"Kendall/MIT - Stairs street level",,,"Cambridge","Kendall/MIT",
"3642",,"Cliff Street",,"42.255808","-70.928314","Weymouth","River St @ Cliff St","River Street"
"7761",,"Forest Street",,"42.449483","-71.234255","Lexington","Massachusetts Ave opp Forest St","Massachusetts Avenue"
"1685",,"Surrey Circle",,"42.472854","-71.180397","Woburn","Cambridge Rd @ Surrey Circle","Cambridge Street"
"3378",,"Gallivan Boulevard",,"42.282449","-71.055791","Boston","Granite Ave @ Gallivan Blvd","Granite Avenue"
"4824",,"Orchard Circle",,"42.473987","-70.894142","Swampscott","Humphrey St @ Palmer Ave","Humphrey Street"
"919",,"Waldo Terrace",,"42.349002","-71.152193","Boston","Washington St opp Waldo Terr","Washington Street"
"4752",,"Lafayette Park",,"42.465369","-70.93277","Lynn","Lewis St @ Cherry St","Lewis Street"
"973",,"Baldwin Place",,"42.349206","-71.15404","Boston","Washington St @ Market St","Washington Street"
"89618",,"Lafayette Drive",,"42.151728","-71.224638","Walpole","Washington St @ Pilgrim Way","Washington Street"
"49827",,"Auburn Street",,"42.480621","-71.147035","Woburn","Montvale Ave @ Fairmount St","Montvale Avenue"
"325",,"Dorchester Avenue",,"42.298249","-71.060935","Boston","Park St Busway @ Dorchester Ave","Busway"
"3520",,"Fowler Street",,"42.249568","-70.992055","Quincy","Washington St @ Fowler St","Washington Street"
"9040",,"Middlesex Avenue",,"42.408877","-71.080329","Medford","Riverside Ave @ Middlesex Ave","Riverside Avenue"
"3036",,"Greenleaf Street",,"42.255009","-71.006352","Quincy","Hancock St opp Greenleaf St","Hancock Street"
"9070224",,,"Summit Avenue - Green Line Eastbound Shuttle","42.340622","-71.126198","Brookline","Summit Avenue",
"5650",,"Ramp - Arlington St To Rt 1 Southbound",,"42.394716","-71.036276","Chelsea","Arlington St @ Fifth St","Arlington Street"
"21599",,"Thompson Place",,"42.35257","-71.047578","Boston","Seaport Blvd @ Sleeper St","Seaport Boulevard"
"82",,"Huntington Avenue",,"42.342478","-71.084701","Boston","Massachusetts Ave @ Huntington Ave","Massachusetts Avenue"
"7646",,"Walker Street",,"42.350931","-71.212832","Newton","Washington St @ Walker St","Washington Street"
"7212",,"Chase Road",,"42.484102","-70.947152","Lynn","Euclid Ave opp Chase Rd","Euclid Avenue"
"1098",,"Falkland Street",,"42.354858","-71.158565","Boston","Hobart St @ Falkland St","Hobart Street"
"77",,"Marlborough Street",,"42.34995","-71.089148","Boston","Massachusetts Ave @ Marlborough St","Massachusetts Avenue"
"28618",,"Winter Street",,"42.189527","-71.202699","Norwood","785 Washington St @ Norwood Hospital","Washington Street"
"6280",,"Patriot Parkway",,"42.41874","-71.01182","Revere","Malden St opp Patriot Pkwy","Malden Street"
"17094","Terminal C Arrivals, Door C106, Boston Logan International Airport, Boston, MA 02128","Logan Airport Terminal B","Terminal C - Silver Line - SL1 South Station","42.366494","-71.017289","Boston","Terminal C - Arrivals Level","Logan Airport Terminal C"
"8548",,"O Roadway",,"42.294517","-71.189055","Newton","Wiswall Rd @ O Roadway","Wiswall Road"
"node-913-lobby",,,"Aquarium - Top of elevator between Wonderland platform and State Street",,,"Boston","Aquarium",
"node-140-lobby",,,"Back Bay - Top of Orange Line platform east escalator",,,"Boston","Back Bay",
"4158",,"Heather Drive",,"42.23589","-71.069805","Milton","Randolph Ave opp Ridgewood Rd","Randolph Avenue"
"51835",,"Clyde Street",,"42.318402","-71.14092","Brookline","Lee St @ Sears Rd","Lee Street"
"9271",,"Aborn Avenue",,"42.51283","-71.070202","Wakefield","Pleasant St @ Aborn Ave","Pleasant Street"
"8462",,"Hartford Street",,"42.486395","-71.277032","Bedford","Loomis St @ Hartford St","Loomis Street"
"22358",,"Wollaston Avenue",,"42.422998","-71.18346","Arlington","116 Park Ave","Park Avenue"
"node-aqucl-wbstatestairs-platform",,,"Aquarium - Bottom of stairs between platform and State Street",,,"Boston","Aquarium",
"9035",,"Medford Street",,"42.417777","-71.07994","Malden","Highland Ave @ Medford St","Highland Avenue"
"8327",,"Victory Road",,"42.295845","-71.054305","Boston","Neponset Ave @ Victory Rd","Neponset Avenue"
"8808",,"King Street",,"42.294436","-71.052297","Boston","Neponset Ave opp King St","Neponset Avenue"
"2530",,,,"42.377686","-71.095985","Somerville","Newton St @ Webster Ave","Newton Street"
"7229",,"Fayette Street",,"42.469246","-70.935405","Lynn","Trinity Ave @ Fayette St","Trinity Avenue"
"node-mlmnl-olstairs-lobby",,,"Malden Center - Bottom of Orange Line platform stairs",,,"Malden","Malden Center",
"13859",,"Edgeworth Street",,"42.196556","-70.925847","Weymouth","851 Pleasant St","Pleasant Street"
"door-chhil-museum",,,"Chestnut Hill - Brimmer and May, Longyear Museum","42.326736","-71.164175","Newton","Chestnut Hill - Brimmer and May, Longyear Museum",
"node-sstat-420stair-middle",,,"South Station - Top of stairs for Alewife",,,"Boston","South Station",
"node-mvbcl-lewfarepaid",,,"Maverick - Paid side of Lewis Mall fare gates",,,"Boston","Maverick",
"282",,"G Street",,"42.331329","-71.044314","Boston","E 8th St @ G St","East Eighth Street"
"26627",,"Allston Drive",,"42.159119","-71.241516","Walpole","Main St @ Sherwood Dr.","Main Street"
"node-welln-skystairs-bridge",,,"Wellington - Top of parking garage stairs",,,"Medford","Wellington",
"5104",,,"Davis - Busway","42.396646","-71.121879","Somerville","Davis",
"9191",,"Hanson Street",,"42.476865","-71.062403","Wakefield","Main St @ Hanson St","Main Street"
"2548",,"Kirkland Place",,"42.376924","-71.112872","Cambridge","Kirkland St @ Kirkland Place","Kirkland Street"
"node-brdwy-farepaid",,,"Broadway - Paid side of fare gates",,,"Boston","Broadway",
"8599",,"Slocum Road",,"42.444921","-71.220974","Lexington","Massachusetts Ave opp Slocum Rd","Massachusetts Avenue"
"4531",,"Franklin Street",,"42.468438","-70.958405","Lynn","Western Ave @ Franklin St","Western Avenue"
"8151",,"Charles Street",,"42.316188","-71.213877","Newton","Elliot St opp Charles St","Elliot Street"
"6496",,"Cummins Highway",,"42.279888","-71.119028","Boston","Hyde Park Ave @ Cummins Hwy","Hyde Park Avenue"
"387",,"Intervale Street",,"42.31207","-71.082867","Boston","Warren St @ Intervale St","Warren Street"
"node-asmnl-radfarepaid",,,"Ashmont - Paid side of fare gates","42.283572","-71.06297","Boston","Ashmont",
"12821",,,,"42.38372","-71.072326","Boston","Main St opp Schraffts Bldg","Main Street"
"8632",,"Spring Street",,"42.434256","-71.241256","Lexington","Marrett Rd @ Spring St","Marrett Road"
"11802",,,,"42.338473","-71.102334","Boston","Ave Louis Pasteur @ Longwood Ave","Avenue Louis Pasteur"
"13827",,,,"42.178989","-70.955386","Weymouth","Main St @ Adams Place","Main Street"
"11971",,"Guest Street",,"42.356306","-71.141461","Boston","Arthur St @ Guest St - Stop & Shop","Arthur Street"
"8855",,"Mountain Street",,"42.514716","-71.161074","Woburn","Main St @ Mountain St","Main Street"
"5069",,"Chestnut Street",,"42.430028","-71.074376","Malden","Summer St @ Chestnut St","Summer Street"
"84882",,"Goddard Street",,"42.306401","-71.205629","Newton","Winchester St @ Rachel Rd","Winchester Street"
"8862",,"West Street",,"42.503755","-71.161605","Woburn","Elm St @ West St","Elm Street"
"node-931-platform",,,"Airport - Bottom of Elevator 931",,,"Boston","Airport",
"7181",,"Balch Street",,"42.562489","-70.88403","Beverly","Cabot St opp Balch St","Cabot Street"
"4905",,"Shelton Road",,"42.468813","-70.898517","Swampscott","Humphrey St opp Shelton Rd","Humphrey Street"
"9070129",,,"Griggs Street - Green Line Westbound Shuttle","42.348901","-71.134118","Boston","Griggs Street",
"2754",,,,"42.38255","-71.090245","Somerville","Cross St @ Chester Ave","Cross Street"
"16434",,"American Legion Highway",,"42.278578","-71.11613","Boston","Cummins Hwy @ American Legion Hwy","Cummins Highway"
"1814",,"Tudor Street",,"42.36077","-71.104325","Cambridge","Brookline St @ Tudor St","Brookline Street"
"4795",,"Devereux Street",,"42.495187","-70.864434","Marblehead","Pleasant St @ Devereux St","Pleasant Street"
"node-857-lobby",,,"Tufts Medical Center - Bottom of Elevator 857",,,"Boston","Tufts Medical Center",
"place-MM-0219","30 Riverside Ave, Brockton, MA 02301",,,"42.060951","-71.011004","Brockton","Campello",
"4050",,"Truman Drive",,"42.176095","-71.034601","Randolph","North St @ Truman Dr","North Street"
"2374",,"North Street",,"42.414198","-71.125938","Medford","Boston Ave @ North St","Boston Avenue"
"1605",,"Lincoln Street",,"42.391665","-71.238563","Waltham","Lexington St @ Lincoln St","Lexington Street"
"1633",,"Intervale Street",,"42.236354","-71.013361","Quincy","Centre St @ Intervale St","Centre Street"
"8947",,"Leighton Road",,"42.253751","-71.142082","Boston","Alwin St opp Leighton Rd","Alwin Street"
"node-rugg-olnstairs-lobby",,,"Ruggles - Top of Orange Line north platform stairs",,,"Boston","Ruggles",
"3580",,"South Street",,"42.241708","-70.889903","Hingham","Central St @ South St","Central Street"
"place-coecl","Boylston St and Dartmouth St, Boston, MA",,,"42.349974","-71.077447","Boston","Copley",
"6461",,"Brown Avenue",,"42.281793","-71.122308","Boston","Cummins Hwy @ Brown Ave","Cummins Highway"
"2046",,"Main Street",,"42.365356","-71.184189","Watertown","Mt Auburn St @ Main St","Mount Auburn Street"
"9070238",,,"Cleveland Circle - Green Line Eastbound Shuttle","42.336033","-71.149119","Boston","Cleveland Circle",
"7817",,"Cove Street",,"42.362504","-71.244611","Waltham","Opp 48 Woerd Ave","Woerd Avenue"
"70252",,,"Fenwood Road - Green Line - Park Street & North","42.333706","-71.105583","Boston","Fenwood Road",
"4801",,"Spring Street",,"42.502769","-70.855517","Marblehead","Pleasant St @ Essex St","Pleasant Street"
"Sharon",,,"Sharon - Commuter Rail","42.124553","-71.184468","Sharon","Sharon",
"place-waban","Beacon St and Waban Sq, Newton, MA 02468",,,"42.325943","-71.230728","Newton","Waban",
"7498",,,,"42.38534","-71.223387","Waltham","Beaver St @ Field Rd","Beaver Street"
"node-cntsq-pearlstair-platform",,,"Central - Bottom of stairs for Pearl St",,,"Cambridge","Central",
"574",,"Cedar Street",,"42.271399","-71.074869","Boston","River St @ Cedar St","River Street"
"2810",,"Deforest Street",,"42.269739","-71.132175","Boston","Poplar St @ West St - George Wright GC","Poplar Street"
"node-jaksn-farepaid",,,"Jackson Square - Paid side of fare gates",,,"Boston","Jackson Square",
"17255",,"Ford Street",,"42.477199","-70.957173","Lynn","Boston St opp Ford St","Boston Street"
"door-astao-revol",,,"Assembly - Revolution Dr","42.392164","-71.077559","Somerville","Assembly - Revolution Dr",
"64",,"Washington Street",,"42.329789","-71.083887","Boston","Dudley Square","Busway"
"4383",,,,"42.253977","-71.026557","Quincy","Adams St @ Adams Plaza","Adams Street"
"1211",,"Brooks Street",,"42.352456","-71.163066","Boston","Faneuil St @ Brooks St","Faneuil Street"
"17011",,"Winter Street",,"42.397728","-71.259622","Waltham","Wyman St @ Winter St","Wyman Street"
"8910",,,,"42.396543","-71.2357","Waltham","617 Lexington St - Waltham HS","Lexington Street"
"node-brdwy-platstairs-platform",,,"Broadway - Bottom of platform stairs",,,"Boston","Broadway",
"49830",,"Sara Way",,"42.487248","-71.140888","Woburn","Bow St @ Salem St","Bow Street"
"8845",,"Edge Hill Road",,"42.376433","-71.258889","Waltham","Main St @ Edgehill Rd","Main Street"
"node-aport-wbpaidstairs-platform",,,"Airport - Bottom of stairs on Bowdoin, Brement Street side",,,"Boston","Airport",
"node-sstat-alewife-farepaid",,,"South Station - Paid side of exit-only gates",,,"Boston","South Station",
"7626",,"Cross Street",,"42.34977","-71.218134","Newton","Washington St opp Cross St","Washington Street"
"626",,"Maplewood Street",,"42.270058","-71.147107","Boston","Washington St opp Maplewood St","Washington Street"
"node-811-platform",,,"Braintree - Top of Red Line platform elevator",,,"Braintree","Braintree",
"8207",,"Boylston Street",,"42.318916","-71.212736","Newton","Woodward St @ Boylston St","Woodward Street"
"41111",,,,"42.319029","-71.045472","Boston","250 Mt Vernon St @ Geiger Gibson Health Center","Mount Vernon Street"
"Melrose Highlands",,,"Melrose Highlands - Commuter Rail","42.469464","-71.068297","Melrose","Melrose Highlands",
"3174",,"Evans Street",,"42.268582","-71.037395","Quincy","W Squantum St @ Evans St","West Squantum Street"
"6822",,,,"42.462644","-70.961091","Lynn","S Common St @ Caggiano Plaza","South Common Street"
"11972",,"Life Street",,"42.357109","-71.145623","Boston","Guest St @ Life St","Guest Street"
"6131",,"Boulder Way",,"42.479565","-70.91647","Swampscott","262 Essex St","Essex Street"
"3712",,"Commercial Street",,"42.22076","-70.969189","Braintree","Quincy Ave @ Commercial St","Quincy Avenue"
"2714",,"Alford A Lombardi Way",,"42.386049","-71.078666","Somerville","Broadway @ Mt Vernon St","Broadway"
"4825",,"Ocean Avenue",,"42.474775","-70.89366","Swampscott","Humphrey St @ Ocean Ave","Humphrey Street"
"node-fldcr-ashstair-lobby",,,"Fields Corner - Bottom of stairs for Ashmont platform",,,"Boston","Fields Corner",
"West Medford",,,"West Medford - Commuter Rail","42.421776","-71.133342","Medford","West Medford",
"54618",,"Lenox Street",,"42.182031","-71.203276","Norwood","Washington St @ Lenox St","Washington Street"
"3718",,"Cotton Avenue",,"42.229223","-70.970924","Braintree","Quincy Ave opp Cotton Ave","Quincy Avenue"
"place-bcnwa","Beacon St and Washington St, Brookline, MA",,,"42.339394","-71.13533","Brookline","Washington Square",
"3483",,"Unnamed Road",,"42.260786","-71.056322","Milton","321 Adams St","Adams Street"
"4939",,"Hingston Street",,"42.520092","-70.939128","Peabody","Washington St @ Allens Ln","Washington Street"
"65542",,"Auburn Street",,"42.344979","-71.234461","Newton","Washington St @ Auburn St","Washington Street"
"node-sstat-420sl-middle",,,"South Station - Top of stairs from drop-off only platform",,,"Boston","South Station",
"6431",,"Sherwood Street",,"42.282976","-71.124104","Boston","93 Cummins Hwy opp Sherwood St","Cummins Highway"
"8864",,,,"42.496928","-71.156036","Woburn","Main St @ Middlesex Canal Pk","Main Street"
"13407",,"Access Road",,"42.246089","-71.006084","Quincy","125 Granite St","Granite Street"
"door-prmnl-huntington",,,"Prudential - Huntington Ave","42.345791","-71.081609","Boston","Prudential - Huntington Ave",
"42819",,"Wolcott Square",,"42.237363","-71.132128","Boston","Hyde Park Ave @ Wolcott Square","Hyde Park Avenue"
"2924",,"Seaver Street",,"42.304183","-71.082124","Boston","Columbia Rd @ Seaver St","Columbia Road"
"70204",,,"Haymarket - Green Line - Copley & West","42.363021","-71.05829","Boston","Haymarket",
"81835",,"Allandale Road",,"42.305786","-71.147817","Brookline","Grove St opp Allandale Rd","Grove Street"
"25712",,"Parker Street",,"42.379315","-71.100285","Somerville","Washington St @ Parker St","Washington Street"
"node-armnl-wescstairs-escalator",,,"Arlington - Top of stairs from westbound escalator",,,"Boston","Arlington",
"2359",,"Cedar Avenue",,"42.412569","-71.181872","Arlington","Park Ave @ Cedar Ave","Park Avenue"
"place-NB-0080","450 Lagrange St, West Roxbury, MA 02132",,,"42.281358","-71.160065","Boston","West Roxbury",
"node-138-bottom",,,"Ruggles - Bottom of Forsyth Street entrance escalator",,,"Boston","Ruggles",
"place-MM-0277","85 Burrill Ave, Bridgewater, MA 02324",,,"41.984916","-70.96537","Bridgewater","Bridgewater",
"16177",,"Leavitt Street",,"42.514458","-70.892459","Salem","Lafayette @ Leavitt St","Lafayette Street"
"node-wondl-fareunpaid",,,"Wonderland - Unpaid side of fare gates",,,"Revere","Wonderland",
"place-clmnl","Beacon St and Chestnut Hill Ave, Brighton, MA",,,"42.336142","-71.149326","Boston","Cleveland Circle",
"18251",,"Kimball Avenue",,"42.486394","-71.198056","Burlington","S Bedford St @ Kimball Ave","South Bedford Street"
"49908",,"Dale Street",,"42.486636","-71.128757","Woburn","Pine St @ Dale St","Pine Street"
"3375",,"Hutchinson Street",,"42.280149","-71.064874","Boston","Gallivan Blvd @ Hutchinson St","Gallivan Boulevard"
"6128",,"Ryan Place",,"42.483039","-70.911405","Swampscott","Essex St opp Ryan Pl","Essex Street"
"2734",,,,"42.397876","-71.105925","Somerville","Broadway @ William St","Broadway"
"411",,"Brunswick Street",,"42.311705","-71.082984","Boston","Warren St @ Brunswick St","Warren Street"
"4547",,"Green Ledge Street",,"42.501598","-70.925305","Salem","Highland Ave @ Greenledge St","Highland Avenue"
"5485",,"Kenwood Road",,"42.418584","-71.045367","Everett","Broadway @ Kenwood Rd","Broadway"
"6752",,"Holyoke Street",,"42.468679","-70.976536","Lynn","Myrtle St @ Holyoke St","Myrtle Street"
"2482",,"Lake Street",,"42.40281","-71.155674","Arlington","West Service Rd @ Lake St","Ramp - Lake St To Rt 2 Westbound"
"6688",,"Childs Street",,"42.464835","-70.971326","Lynn","Boston St @ Childs St","Boston Street"
"9070164",,,"Waban Station - Green Line Eastbound Shuttle","42.326601","-71.23056","Newton","Waban",
"61872",,"Oak Street",,"42.257212","-71.161892","Dedham","Washington St @ Oak St","Washington Street"
"70104",,,"Quincy Adams - Red Line - Alewife","42.233391","-71.007153","Quincy","Quincy Adams",
"2285",,"Bartlett Avenue",,"42.416736","-71.159705","Arlington","Massachusetts Ave @ Willow Ct","Massachusetts Avenue"
"16358",,"Walter Street",,"42.257509","-71.119479","Boston","River St @ Walter St","River Street"
"8944",,"Brainard Street",,"42.254309","-71.133823","Boston","Reservation Rd @ Brainard St","Reservation Road"
"3486",,"Rowe Street",,"42.260196","-71.04777","Milton","Adams St @ Rowe St","Adams Street"
"1132",,"Robinwood Avenue",,"42.316951","-71.113368","Boston","Centre St @ Robinwood Ave","Centre Street"
"18932",,,,"42.397198","-71.255369","Waltham","440 Totten Pond Rd","Totten Pond Road"
"9120",,"Richardson Street",,"42.471028","-71.149962","Woburn","Main St @ Richardson St","Main Street"
"4516",,,,"42.449356","-70.980563","Saugus","Salem Tnpk @ Ballard St","Salem Turnpike"
"86945",,"Appleton Street",,"42.376842","-71.232009","Waltham","Main St @ Appleton St","Main Street"
"5599",,"Carmel Street",,"42.400404","-71.033468","Chelsea","Washington Ave @ Carmel St","Washington Avenue"
"1145",,,,"42.329752","-71.090903","Boston","42A John Eliot Sq","Dudley Street"
"111848",,"Water Street",,"42.274431","-70.860687","Hull","Nantasket Ave from Wash Blvd to Water St (FLAG)","Nantasket Avenue"
"2804",,"Highfield Road",,"42.277545","-71.127459","Boston","Metropolitan Ave @ Highfield Rd","Metropolitan Avenue"
"7580",,,,"42.366602","-71.210937","Watertown","570 Pleasant St","Pleasant Street"
"place-fenwy","411 Park Dr, Boston, MA 02215",,,"42.345394","-71.104187","Boston","Fenway",
"node-masta-undersouth-lobby",,,"Massachusetts Avenue - Top of stairs to south end of underpass",,,"Boston","Massachusetts Avenue",
"70202",,,"Government Center - Green Line - Copley & West","42.359705","-71.059215","Boston","Government Center",
"9119",,"Vining Court",,"42.469189","-71.148603","Woburn","Main St @ Vining Ct","Main Street"
"21772",,"Vassar Street",,"42.354929","-71.10512","Cambridge","Amesbury St @ Vassar St","Amesbury Street"
"9196",,"Franklin Street",,"42.466739","-71.061509","Melrose","910 Main St","Main Street"
"3935",,"West Street",,"42.214859","-71.004456","Braintree","Washington St opp West St","Washington Street"
"5362",,"Magnolia Street",,"42.42259","-71.060815","Malden","Ferry St @ Magnolia St","Ferry Street"
"2340",,"Merrill Avenue",,"42.391796","-71.157577","Cambridge","Blanchard Rd @ Merrill Ave","Blanchard Road"
"5303",,"Edgar Avenue",,"42.395076","-71.097724","Somerville","Main St @ Broadway","Main Street"
"2188",,,,"42.388819","-71.157434","Cambridge","Blanchard Rd @ Glenn Rd","Blanchard Road"
"5651",,"Walnut Street",,"42.395012","-71.034252","Chelsea","Sixth St @ Walnut St","Sixth Street"
"7497",,"Forest Street",,"42.385547","-71.226104","Waltham","Beaver St opp Forest St","Beaver Street"
"111729",,"Austin Street",,"42.262627","-71.095503","Milton","Blue Hill Ave - Tucker St to Brush Hill Rd (FLAG)","Blue Hill Avenue"
"5401",,"Forest Avenue",,"42.407618","-71.062197","Everett","202 Main St","Main Street"
"2270",,"Cedar Street",,"42.397954","-71.13112","Cambridge","Massachusetts Ave @ Cedar St","Massachusetts Avenue"
"7466",,"Willis Street",,"42.457522","-70.996571","Saugus","60 Winter St","Winter Street"
"node-906-passage",,,"Haymarket - Bottom of elevator between Green Line, busway and Orange Line passageway",,,"Boston","Haymarket",
"3493",,"South Central Avenue",,"42.261731","-71.024958","Quincy","Beale St @ S Central Ave","Beale Street"
"9038",,"First Street",,"42.411411","-71.079279","Medford","Middlesex Ave @ First St","Middlesex Avenue"
"3559",,"Governor Long Road",,"42.255311","-70.900611","Hingham","Downer Ave @ Governor Long Rd","Downer Avenue"
"23538",,"Brunswick Road",,"42.406681","-71.162666","Arlington","Pleasant St @ Brunswick Rd","Pleasant Street"
"114893",,"Wharf Avenue",,"42.270275","-70.857409","Hull","Wash Blvd - Nantasket Ave to Rockland House Rd","George Washington Boulevard"
"49804",,"Third Ave",,"42.486644","-71.224616","Burlington","62 Second Ave","Second Avenue"
"node-knncl-frontsbstair-platform",,,"Kendall/MIT - Stairs platform level",,,"Cambridge","Kendall/MIT",
"30294","306 Northern Ave, Boston, MA 02210",,,"42.339299","-71.057007","Boston","250 Dorchester Avenue","Dorchester Avenue"
"3279",,"Noanet Street",,"42.260844","-70.976796","Quincy","576 Sea St","Sea Street"
"4184",,"Wales Avenue",,"42.171869","-71.047207","Randolph","N Main St @ Wales Ave","North Main Street"
"15216",,"Cefalo Road",,"42.287758","-71.146008","Boston","Centre @ Colbert St","Centre Street"
"31391",,"Gainsborough Street",,"42.341443","-71.086788","Boston","Huntington Ave @ Gainsborough St","Huntington Avenue"
"node-958-platform",,,"Fields Corner - Top of elevator for Ashmont platform",,,"Boston","Fields Corner",
"3263",,"Crosby Street",,"42.271","-70.951532","Quincy","1263 Sea St","Sea Street"
"1371",,"Harris Street",,"42.338226","-71.121312","Brookline","Harvard St opp Vernon St","Harvard Street"
"node-ccmnl-305-platform",,,"Community College - Bottom of Escalator 305",,,"Boston","Community College",
"node-879-lobby",,,"Andrew - Top of outbound elevator",,,"Boston","Andrew",
"7353",,"Verdmont Avenue",,"42.492687","-70.971927","Lynn","Lynnfield St @ Verdmont Ave","Lynnfield Street"
"place-alsgr","Allston St and Commonwealth Ave, Boston, MA 02134",,,"42.348701","-71.137955","Boston","Allston Street",
"door-chncl-fhelevator",,,"Chinatown - Washington St, Essex St","42.352405","-71.063087","Boston","Chinatown - Washington St, Essex St",
"70067",,,"Harvard - Red Line - Ashmont/Braintree","42.373362","-71.118956","Cambridge","Harvard",
"1067",,,,"42.364074","-71.119704","Boston","Western Ave opp Genzyme","Western Avenue"
"8955",,"River Street",,"42.246401","-71.136357","Boston","Turtle Pond Pkwy @ River St","Turtle Pond Parkway"
"Newburyport",,,"Newburyport - Commuter Rail","42.797837","-70.87797","Newburyport","Newburyport",
"node-cntsq-861-platform",,,"Central - Bottom of Elevator 861 for Massachusetts Ave",,,"Cambridge","Central",
"6767",,"Western Avenue",,"42.469833","-70.957108","Lynn","Washington St @ Western Ave","Washington Street"
"55011",,,,"42.391021","-71.070228","Boston","Alford St @ MWRA Pump Station","Alford Street"
"node-427-lobby",,,"Fields Corner - Bottom to escalator to Alewife platform",,,"Boston","Fields Corner",
"5245",,"Allandale Street",,"42.300839","-71.127376","Boston","Centre St @ Faulkner Hospital","Centre Street"
"8339",,"Olcott Street",,"42.372111","-71.19955","Watertown","Main St @ Olcott St","Main Street"
"7410",,"Lawrence Street",,"42.435056","-71.022051","Revere","Lynn St @ Lawrence St","Lynn Street"
"879",,"East Broadway",,"42.335704","-71.035488","Boston","L St @ Broadway","L Street"
"5554",,"Ferry Street",,"42.412499","-71.045607","Everett","Elm St @ Ferry St","Elm Street"
"node-931-bridge",,,"Airport - Top of Elevator 931",,,"Boston","Airport",
"3692",,"Broad Street",,"42.217651","-70.936794","Weymouth","Middle St @ Broad St","Middle Street"
"5723",,"Parker Street",,"42.39693","-71.02686","Chelsea","Broadway @ Parker St","Broadway"
"node-702-lobby",,,"Wonderland - Lobby level of garage elevator",,,"Revere","Wonderland",
"89610",,,,"42.39705","-71.257227","Waltham","Totten Pond Rd @ Third Ave","Totten Pond Road"
"node-wimnl-ibunpaidstairs-street",,,"Wood Island - Bottom of stairs for all trains, buses, Bennington Street",,,"Boston","Wood Island",
"2726",,"Winter Hill Circle",,"42.393489","-71.094823","Somerville","Broadway @ Winter Hill Plaza","Broadway"
"6168",,"Jefferson Avenue",,"42.499932","-70.895754","Salem","Loring Ave opp Jefferson Ave","Loring Avenue"
"3812",,"Franklin Street",,"42.215025","-70.967982","Weymouth","Front St @ Sterling St","Front Street"
"1688",,,,"42.481169","-71.186437","Burlington","Cambridge St @ Ray Ave","Cambridge Street"
"86932",,"Sheridan Road",,"42.376397","-71.260928","Waltham","Main St @ Sheridan Rd","Main Street"
"node-sstat-bldgescdown-lobby",,,"South Station - Bottom of escalators from Commuter Rail concourse",,,"Boston","South Station",
"2670",,"Conwell Street",,"42.391507","-71.110743","Somerville","263 Highland Ave","Highland Avenue"
"node-394-platform",,,"Aquarium - Bottom of escalator from Wonderland platform to State Street",,,"Boston","Aquarium",
"2179",,"Alpine Street",,"42.385354","-71.137421","Cambridge","Concord Ave @ Alpine St","Concord Avenue"
"4062",,"Seton Way",,"42.169691","-71.035552","Randolph","North St @ Seton Way","North Street"
"8",,"Island Street",,"42.331202","-71.070724","Boston","Massachusetts Ave @ Island St","Massachusetts Avenue"
"2668",,"Lowell Street",,"42.39018","-71.107805","Somerville","Highland Ave @ Lowell St","Highland Avenue"
"Back Bay-03",,,"Back Bay - Commuter Rail - Track 3","42.347283","-71.075312","Boston","Back Bay",
"41839",,"Brook Farm Road",,"42.290994","-71.168567","Boston","LaGrange @ Brookfarm Rd","La Grange Street"
"49825",,"Mill Street",,"42.486244","-71.120414","Woburn","Washington St @ Mill St","Washington Street"
"882",,"Richmond Street",,"42.274026","-71.067521","Boston","Dorchester Ave @ Richmond St","Dorchester Avenue"
"door-brkhl-cypress",,,"Brookline Hills - Tappan St, Cypress St","42.331421","-71.126579","Brookline","Brookline Hills - Tappan St, Cypress St",
"51111",,,,"42.320175","-71.048754","Boston","Mt Vernon St @ Bayside Expo Center","Mount Vernon Street"
"8674",,"Willow Street",,"42.376571","-71.216876","Waltham","Main St @ Willow St","Main Street"
"4294",,"Royalcrest Drive",,"42.190404","-71.058382","Randolph","N Main St opp Intervale Terr","North Main Street"
"260",,"Covington Street",,"42.331204","-71.045994","Boston","E 8th St @ Covington St","East Eighth Street"
"23618",,,,"42.201598","-71.197276","Norwood","361 Washington St @ Aldaen Pk","Washington Street"
"7827",,"Islington Road",,"42.347185","-71.252981","Newton","Commonwealth Ave @ Islington Rd","Commonwealth Avenue"
"2078",,"Aberdeen Court",,"42.376545","-71.146202","Cambridge","61 Aberdeen Ave","Aberdeen Avenue"
"4037",,"Margaret Drive",,"42.196768","-71.027666","Braintree","Pond St @ Margaret Dr","Pond Street"
"4815",,"Greenwood Avenue",,"42.467678","-70.910436","Swampscott","Humphrey St @ Greenwood Ave","Humphrey Street"
"803",,"McCraw Street",,"42.286077","-71.145052","Boston","Belgrade Ave @ McCraw St","Belgrade Avenue"
"5714",,"Yeamans Street",,"42.408271","-71.013574","Revere","Broadway @ Yeamans St","Broadway"
"5658",,"Willow Street",,"42.388264","-71.026812","Chelsea","Central Ave @ Willow St","Central Avenue"
"7391",,"Dudley Street",,"42.453165","-70.991651","Saugus","Lincoln Ave opp Dudley St","Lincoln Avenue"
"place-ER-0046","Arlington St and 6th St, Chelsea, MA 02150",,,"42.395689","-71.034281","Chelsea","Chelsea",
"522",,"Franklin Park Service Road",,"42.30078","-71.102356","Boston","Circuit Dr @ Shattuck Hospital","Forest Hills Entrance Drive"
"node-orhte-obpaidstairs-platform",,,"Orient Heights - Bottom of stairs for Wonderland",,,"Boston","Orient Heights",
"2192",,"Edgemoor Road",,"42.392508","-71.163804","Belmont","Concord Ave opp Edgemoor Rd","Concord Avenue"
"109846",,,,"42.36303","-70.97039","Winthrop","Shirley St opp Yirrell Beach","Shirley Street"
"Hersey",,,"Hersey - Commuter Rail","42.275648","-71.215528","Needham","Hersey",
"6285",,"Bellvale Street",,"42.434727","-71.03157","Malden","Salem St opp Bellavale St","Salem Street"
"4855",,"York Street",,"42.422955","-70.987687","Revere","N Shore Rd @ York St","North Shore Road"
"2757",,"Brighton Street",,"42.38258","-71.078386","Boston","Cambridge St @ Brighton St","Cambridge Street"
"82138",,"Avery Street",,"42.298796","-71.235697","Needham","Hillside Ave @ Avery St","Hillside Avenue"
"11071",,"Guest Street",,"42.356313","-71.141651","Boston","Arthur St @ Guest St - Stop & Shop","Arthur Street"
"node-knncl-backsbstair-platform",,,"Kendall/MIT - Stairs platform level",,,"Cambridge","Kendall/MIT",
"4673",,"Dearborn Street",,"42.528027","-70.90289","Salem","North St opp Dearborn St","North Street"
"57618",,"Winter Street",,"42.189515","-71.202573","Norwood","Washington St @ Norwood Hospital","Washington Street"
"node-symcl-eb-farepaid",,,"Symphony - Paid side of fare gates",,,"Boston","Symphony",
"2390",,"Walnut Street",,"42.387336","-71.093312","Somerville","Pearl St @ Walnut St","Pearl Street"
"4167",,"Hills Street",,"42.197378","-71.061267","Randolph","N Main St @ Hills St","North Main Street"
"70199",,,"Park Street - Green Line - (E) Heath Street","42.356395","-71.062424","Boston","Park Street",
"place-grnst","150 Green St, Jamaica Plain, MA",,,"42.310525","-71.107414","Boston","Green Street",
"5627",,"Murray Street",,"42.404932","-71.032991","Chelsea","Sagamore Ave @ Murray St","Sagamore Avenue"
"5692",,"Spring Street",,"42.405279","-71.051946","Everett","Chelsea St @ Edmester Ct","Chelsea Street"
"15241",,"Louders Lane",,"42.305857","-71.124464","Boston","Centre St @ Louders Ln","Centre Street"
"14056",,"Plain Street",,"42.164869","-71.039538","Randolph","88 North St","North Street"
"5350",,"Coolidge Street",,"42.419133","-71.053036","Everett","Ferry St @ Bennett St","Ferry Street"
"27618",,"Guild Street",,"42.191284","-71.202528","Norwood","Washington St @ Guild St","Washington Street"
"node-bbsta-olestairs-lobby",,,"Back Bay - Top of Orange Line platform west stairs",,,"Boston","Back Bay",
"3813",,"Front Street",,"42.214137","-70.96755","Weymouth","Summer St @ Walnut Ave","Summer Street"
"2605",,,,"42.374126","-71.082561","Somerville","McGrath Hwy opp Twin City Plaza","McGrath Highway"
"node-masta-undernorth-way",,,"Massachusetts Avenue - North end of Massachusetts Ave underpass",,,"Boston","Massachusetts Avenue",
"70060",,,"Wonderland - Blue Line - Exit Only","42.413495","-70.991613","Revere","Wonderland",
"1418",,"Fifth Street",,"42.371497","-71.083319","Cambridge","Cambridge St @ Fifth St","Cambridge Street"
"1695",,"Bedford Street",,"42.504893","-71.195784","Burlington","Cambridge St @ Bedford St","Cambridge Street"
"1087",,"Atwood Road",,"42.343049","-71.153613","Boston","Chestnut Hill Ave @ Wiltshire Rd","Chestnut Hill Avenue"
"Blue Hill Avenue",,,"Blue Hill Avenue - Commuter Rail","42.271466","-71.095782","Boston","Blue Hill Avenue",
"1130",,"Grovenor Road",,"42.314197","-71.114036","Boston","Centre St @ Saint John St","Centre Street"
"6124",,"Intervale Road",,"42.488758","-70.898141","Salem","Loring Ave @ Intervale Rd","Loring Avenue"
"9270099",,,,"42.266671","-71.017924","Quincy","Beale St @ Wollaston Branch Library",
"1345",,"Munroe Street",,"42.31808","-71.086321","Boston","Humboldt Ave @ Munroe St","Humboldt Avenue"
"14423",,,,"42.233689","-70.98012","Braintree","Shaw St @ Quintree Mall","Howard Street"
"9133",,"Fisher Terrace",,"42.497441","-71.155907","Woburn","Main St @ Fisher Terr","Main Street"
"154",,,,"42.339188","-71.051503","Boston","W Broadway @ D St","West Broadway"
"node-514-lobby",,,"Harvard - Bottom of escalator from lobby to Harvard Square mezzanine",,,"Cambridge","Harvard",
"9202",,"West Foster Street",,"42.45487","-71.065486","Melrose","Main St @ W Foster St - Melrose Sq","Main Street"
"South Station-12",,,"South Station - Commuter Rail - Track 12","42.350778","-71.054938","Boston","South Station",
"1648",,"Granite Street",,"42.227896","-71.031558","Quincy","859 Willard St","Willard Street"
"6466",,"Clay Street",,"42.257978","-71.123529","Boston","Hyde Park Ave @ Clay Street","Hyde Park Avenue"
"6639",,"Ocean Street",,"42.426327","-70.920814","Nahant","Nahant Rd @ Ocean St","Nahant Road"
"4931",,"Pound Lane",,"42.534874","-70.929316","Peabody","Andover St @ Pound Ln","Andover Street"
"node-923-lobby",,,"Aquarium - Top of elevator between Bowdoin platform and Atlantic Avenue",,,"Boston","Aquarium",
"7211",,"Clayton Street",,"42.485285","-70.948261","Lynn","Euclid Ave opp Clayton St","Euclid Avenue"
"2447",,"Harvard Street",,"42.368187","-71.101754","Cambridge","Prospect St @ Harvard St","Prospect Street"
"449",,"Thetford Avenue",,"42.286219","-71.079593","Boston","Norfolk St @ Thetford Ave","Norfolk Street"
"2415",,"Arlington Street",,"42.417857","-71.131261","Medford","Boston Ave @ Arlington St","Boston Avenue"
"2153",,"Wheeler Street",,"42.388777","-71.144816","Cambridge","Concord Ave opp Wheeler St","Concord Avenue"
"7508",,"Denver Street",,"42.459397","-71.01006","Saugus","Central St @ Denver St","Central Street"
"node-398-sl",,,"South Station - Top of Escalator 398",,,"Boston","South Station",
"91618",,"High Plain Street",,"42.145808","-71.229966","Walpole","624 Washington St opp Bird Middle School","Washington Street"
"7834",,"Auburndale Avenue",,"42.349651","-71.247197","Newton","Lexington St @ Auburndale Ave","Lexington Street"
"place-DB-2265","1070 Massachusetts Ave, Boston, MA 02118",,,"42.327415","-71.065674","Boston","Newmarket",
"place-NEC-2040","1 Crocker St, Mansfield, MA 02048",,,"42.032787","-71.219917","Mansfield","Mansfield",
"7812",,"Newton Street",,"42.373465","-71.228258","Waltham","River St @ Newton St","River Street"
"6763",,"Waverly Street",,"42.468537","-70.961491","Lynn","Boston St @ Strawberry Ave","Boston Street"
"1187",,"West Walnut Park",,"42.316299","-71.097858","Boston","Washington St @ Columbus Ave","Washington Street"
"node-337-middle",,,"Davis - Bottom of Escalator 337",,,"Somerville","Davis",
"door-alfcl-steel",,,"Alewife - Steel Place, Alewife Brook Reserve","42.395578","-71.142469","Cambridge","Alewife - Steel Place, Alewife Brook Reserve",
"1677",,"Rehabilation Way",,"42.460916","-71.165774","Woburn","Cambridge Rd @ NE Rehab Hospital","Cambridge Street"
"977",,"Montfern Avenue",,"42.349897","-71.164524","Boston","Washington St @ Oak Square Ave","Washington Street"
"4510",,,,"42.360438","-71.060164","Boston","Cambridge St @ Government Ctr Sta","Cambridge Street"
"door-sdmnl-walley",,,"Suffolk Downs - Walley St","42.39064","-70.997388","Boston","Suffolk Downs - Walley St",
"6798",,"Parkland Avenue",,"42.47789","-70.971809","Lynn","Linwood St @ Parkland Ave","Linwood Street"
"4937",,"Bresnahan Street",,"42.520333","-70.930609","Peabody","Washington St @ Lowe St","Washington Street"
"30619",,"Croft Regis Road",,"42.226626","-71.186615","Westwood","Washington St @ Croft Regis Rd","Washington Street"
"node-crtst-southlobstair-lobby",,,"Courthouse - Bottom of stairs between Thomson Place landing and lobby",,,"Boston","Courthouse",
"8500",,"Stearns Street",,"42.320874","-71.194147","Newton","200 Parker St opp Stearns St","Parker Street"
"10612",,"Carol Circle",,"42.26792","-71.149996","Boston","Washington St opp W Boundary Rd","Washington Street"
"2816",,"Chestnut Street",,"42.259267","-71.126059","Boston","Austin St @ Chestnut St","Austin Street"
"70032",,,"Wellington - Orange Line - Forest Hills","42.40237","-71.077082","Medford","Wellington",
"7654",,"River Street",,"42.352586","-71.231055","Newton","Elm St @ River St","Elm Street"
"70030",,,"Sullivan Square - Orange Line - Forest Hills","42.383975","-71.076994","Boston","Sullivan Square",
"841",,"Virgil Road",,"42.283759","-71.161613","Boston","Lagrange St @ Virgil Rd","La Grange Street"
"85562",,,,"42.288448","-71.171822","Boston","Baker St @ VFW Pkwy","Baker Street"
"6260",,"Washington Avenue",,"42.42711","-71.022307","Revere","Malden St @ Washington Ave","Malden Street"
"8461",,"Winthrop Avenue",,"42.488237","-71.27318","Bedford","Loomis St @ opp Winthrop Ave","Loomis Street"
"41187",,"Green Street",,"42.309517","-71.104541","Boston","Washington St @ Green St","Washington Street"
"3301",,"Bowes Avenue",,"42.255458","-70.968562","Quincy","Palmer St opp Bowes Ave","Palmer Street"
"8510",,"Cotton Street",,"42.341329","-71.192254","Newton","Centre St @ Cotton St","Centre Street"
"node-tumnl-washnbstairs-platform",,,"Tufts Medical Center - Bottom of stairs for Oak Grove, Washington Street",,,"Boston","Tufts Medical Center",
"61847",,,,"42.166898","-71.212211","Walpole","Opp 9 Washington St - Norwood Line","Washington Street"
"node-123-platform",,,"Andrew - Bottom of left outbound exit-only escalator",,,"Boston","Andrew",
"3781",,"Washington Street",,"42.202279","-71.004953","Braintree","Pearl St @ Washington St","Pearl Street"
"70024",,,"Haymarket - Orange Line - Forest Hills","42.363021","-71.05829","Boston","Haymarket",
"32910",,"Southern Artery",,"42.253805","-70.995792","Quincy","McGrath Hwy opp Southern Artery","McGrath Highway"
"7916",,"Charles Street",,"42.425988","-71.19629","Lexington","Massachusetts Ave @ Charles St","Massachusetts Avenue"
"node-wondl-nshorestairs-bottom",,,"Wonderland - Bottom of stairs to Blue Line lobby from North Shore Road",,,"Revere","Wonderland",
"door-wondl-nshore",,,"Wonderland - 1300 North Shore Rd","42.41365","-70.991904","Revere","Wonderland - 1300 North Shore Rd",
"3921",,"Highland Avenue",,"42.19183","-71.006503","Braintree","Hancock St opp Highland Ave","Hancock Street"
"2250",,"Daniels Street",,"42.424123","-71.17941","Arlington","Massachusetts Ave @ Daniels St","Massachusetts Avenue"
"node-brntn-fareunpaid",,,"Braintree - Unpaid side of fare gates",,,"Braintree","Braintree",
"21835",,"Channing Road",,"42.326893","-71.143258","Brookline","Chestnut Hill Ave @ Eliot St","Chestnut Hill Avenue"
"39941",,,,"42.125909","-71.007153","Holbrook","Holbrook Court Apartments","Holbrook Court"
"70063",,,"Davis - Red Line - Ashmont/Braintree","42.39674","-71.121815","Somerville","Davis",
"75618",,,,"42.157438","-71.219774","Walpole","Washington St @ Washington Green","Washington Street"
"7521",,"Pleasant Avenue",,"42.455289","-71.020375","Saugus","209 Essex St opp Pleasant Ave","Essex Street"
"node-wtcst-ibstairs-lobby",,,"World Trade Center - Top of inbound platform stairs",,,"Boston","World Trade Center",
"10642",,"Washington Street","Forest Hills - Upper Busway","42.299936","-71.114324","Boston","Forest Hills","Busway"
"2853",,"Robert Lowney Way",,"42.375894","-71.056288","Boston","Bunker Hill St @ Lowney Way","Bunker Hill Street"
"2324",,"Wachusett Avenue",,"42.413561","-71.182156","Arlington","Park Ave @ Wachusett Ave","Park Avenue"
"4301",,"Ballard Street",,"42.198859","-71.061504","Randolph","N Main St @ Ballard St","North Main Street"
"1239",,"Church Street",,"42.34818","-71.067595","Boston","Tremont St @ Marginal St","Tremont Street"
"615",,"De Soto Road",,"42.263045","-71.155462","Boston","Washington St opp Desoto Rd","Washington Street"
"1877",,"Morey Road",,"42.293627","-71.140097","Boston","Weld St @ Morey St","Weld Street"
"place-stpul","Beacon St and Saint Paul St, Brookline, MA 02446",,,"42.343327","-71.116997","Brookline","Saint Paul Street",
"2462",,"Middlesex Street",,"42.393429","-71.131424","Cambridge","Rindge Ave @ Reed St","Rindge Avenue"
"North Station-06",,,"North Station - Commuter Rail - Track 6","42.366618","-71.062601","Boston","North Station",
"9232",,"Linden Road",,"42.464662","-71.061649","Melrose","Main St @ Linden Rd","Main Street"
"3094",,"Furnace Brook Parkway",,"42.257272","-71.011194","Quincy","Newport Ave @ Furnace Brook Pkwy","Newport Avenue"
"6520",,"Turtle Pond Parkway Branch",,"42.255272","-71.138069","Boston","Opp 302 Turtle Pond Pkwy","Turtle Pond Parkway"
"11319",,"West Third Street",,"42.343047","-71.055038","Boston","W Second St opp W Third St","West Second Street"
"1366",,"Washington Street",,"42.331966","-71.113099","Boston","Huntington Ave @ Riverway","Huntington Avenue"
"2108",,"Trapelo Road",,"42.378279","-71.170735","Belmont","Trapelo Rd @ Belmont St - Benton Square","Belmont Street"
"2265",,"Lake Street",,"42.405583","-71.142118","Arlington","Massachusetts Ave @ Lake St","Massachusetts Avenue"
"5243",,"Rambler Road",,"42.304484","-71.124831","Boston","Centre St @ Rambler Rd","Centre Street"
"7963",,"Aerial Street",,"42.429628","-71.174804","Arlington","Forest St @ Sunset Rd","Forest Street"
"6727",,"Kirkland Street",,"42.487169","-71.014568","Saugus","Walnut St opp Kirkland St","Walnut Street"
"9121",,"Fowle Street",,"42.472439","-71.149957","Woburn","Main St @ Fowle St","Main Street"
"7917",,"Bow Street",,"42.425652","-71.194862","Lexington","Massachusetts Ave @ Bow St","Massachusetts Avenue"
"70128",,,"Griggs Street - Green Line - Park Street & North","42.348747","-71.1345","Boston","Griggs Street",
"1161",,"Goldsmith Place",,"42.317365","-71.113229","Boston","Centre St @ Lochstead Ave","Centre Street"
"30249",,"Tide Street","Northern Ave @ Tide St - Silver Line - SL2 Design Center","42.34508","-71.031986","Boston","Northern Ave @ Tide St","Northern Avenue"
"node-forhl-busfarepaid",,,"Forest Hills - Paid side of fare gates",,,"Boston","Forest Hills",
"4852",,"Charlotte Road",,"42.487633","-70.882669","Marblehead","Humphrey St @ Charlotte Rd","Humphrey Street"
"node-welln-skyentry",,,"Wellington - Bottom of Station Landing parking garage",,,"Medford","Wellington",
"place-FR-0361","70 Main St, Ayer, MA 01432",,,"42.559074","-71.588476","Ayer","Ayer",
"9053",,"Oakland Street",,"42.418497","-71.079795","Malden","Highland Ave @ Oakland St","Highland Avenue"
"5230",,,,"42.305854","-71.12422","Boston","Centre St opp Louders Ln","Centre Street"
"3707",,"Pearl Street",,"42.242565","-70.947457","Weymouth","Sea St opp Pearl St","Sea Street"
"16170",,"Linden Street",,"42.504716","-70.891188","Salem","Loring Ave @ Salem State University","Loring Avenue"
"4877",,"Walker Road",,"42.477006","-70.910116","Swampscott","306 Paradise Rd opp Walker Rd","Paradise Road"
"4063",,"Plain Street",,"42.164866","-71.039387","Randolph","81 North St","North Street"
"77241",,"Summit Street",,"42.382793","-71.246883","Waltham","184 Hammond St","Hammond Street"
"38481",,"Trescott Street",,"42.238055","-71.002967","Quincy","Franklin St opp Trescott St","Franklin Street"
"5080",,,,"42.428996","-71.088046","Malden","Malden Medical Ctr @ Glen Ridge Nursing Home",
"7102",,"Salem Water Works Road",,"42.580261","-70.886611","Beverly","Dodge St @ Salem Rd","Dodge Street"
"node-403-lobby",,,"World Trade Center - Top of inbound platform escalator",,,"Boston","World Trade Center",
"2821",,"Bunker Hill Street",,"42.383307","-71.071852","Boston","Main St @ Bunker Hill St","Main Street"
"259",,"Old Harbor Street",,"42.331193","-71.047219","Boston","E 8th St @ Old Harbor St","East Eighth Street"
"door-state-cityhall",,,"State - City Hall","42.359435","-71.057615","Boston","State - City Hall",
"2597",,"Prospect Street",,"42.379248","-71.094819","Somerville","Somerville Ave @ Prospect St","Somerville Avenue"
"82130",,"Parkland Road",,"42.308155","-71.235052","Needham","Central Ave @ Parkland Rd","Central Avenue"
"door-jfk-columbia",,,"JFK/UMass - Columbia Rd","42.321358","-71.052583","Boston","JFK/UMass - Columbia Rd",
"7977",,"Ritchfield Road",,"42.419446","-71.158779","Arlington","Summer St @ Richfield St","Summer Street"
"node-symcl-falmstair-platform",,,"Symphony - Bottom of stairs for First Church, Falmouth St",,,"Boston","Symphony",
"8823",,"Emerson Road",,"42.373684","-71.20622","Watertown","Main St @ Emerson Rd","Main Street"
"109857",,"Otis Street",,"42.358937","-70.970453","Winthrop","Tafts Ave @ Otis St","Tafts Avenue"
"5734",,"Lexington Street",,"42.377027","-71.039244","Boston","Meridian St @ Lexington St","Meridian Street"
"2296",,"Norris Street",,"42.39586","-71.128749","Cambridge","Massachusetts Ave @ Norris St","Massachusetts Avenue"
"25236",,"Forest Hills Street",,"42.312358","-71.101591","Boston","Washington St @ Montebello Rd","Washington Street"
"7319",,"Western Avenue",,"42.47729","-70.949069","Lynn","Chestnut St @ Western Ave","Chestnut Street"
"1302",,"Commonwealth Avenue Frontage Road Westbound",,"42.350621","-71.131245","Boston","Harvard Ave @ Commonwealth Ave","Harvard Avenue"
"1395",,"Appleton Street",,"42.345156","-71.074969","Boston","Dartmouth St @ Appleton St","Dartmouth Street"
"door-sull-main",,,"Sullivan Square - Buses, Parking, Street","42.384309","-71.076635","Boston","Sullivan Square - Buses, Parking, Street",
"21917",,,"Reservoir - Busway","42.33512","-71.149405","Brookline","Reservoir",
"1286",,"Harvard Street",,"42.333022","-71.118833","Brookline","Washington St @ Harvard St","Washington Street"
"node-mlmnl-crstairs-platform",,,"Malden Center - Top of Commuter Rail platform stairs",,,"Malden","Malden Center",
"7959",,"Lawrence Lane",,"42.435161","-71.173205","Arlington","Clyde Terr @ Lawrence Ln","Clyde Terrace"
"81437",,"Chestnut Street",,"42.280372","-71.236875","Needham","Chapel St @ Great Plain Ave","Chapel Street"
"4157",,"Hallen Avenue",,"42.23864","-71.069675","Milton","Randolph Ave @ Hallen Ave","Randolph Avenue"
"4154",,"Pleasant Street",,"42.245321","-71.069445","Milton","Randolph Ave opp Pleasant St","Randolph Avenue"
"7891",,"Roberts Drive",,"42.487656","-71.266435","Bedford","Great Rd @ Roberts Dr","The Great Road"
"849",,"Burard Street",,"42.285967","-71.163863","Boston","Lagrange St opp Burard St","La Grange Street"
"6713",,"Fairmount Avenue",,"42.476358","-70.999883","Saugus","Walnut St opp Fairmount Ave","Walnut Street"
"633",,"Metropolitan Avenue",,"42.281294","-71.133567","Boston","Washington St @ Metropolitan Ave","Washington Street"
"3620",,"Birchbrow Avenue",,"42.242708","-70.955691","Weymouth","Bridge St @ Birchbrow Ave","Bridge Street"
"3246",,"Curlew Road",,"42.261918","-70.982487","Quincy","455 Sea St","Sea Street"
"15235",,"Rockvale Circle",,"42.307649","-71.106227","Boston","Washington St @ Rockvale Circle","Washington Street"
"node-bbsta-upasswstairs-bottom",,,"Back Bay - Bottom of western underpass stairs",,,"Boston","Back Bay",
"4578",,,,"42.524442","-70.953009","Peabody","Centennial Dr opp Rt128 Ramp","Centennial Drive"
"node-wondl-ibplazastairs-bridge",,,"Wonderland - Bridge level of stairs from garage to Revere Beach Plaza",,,"Revere","Wonderland",
"1574",,"Moreland Street",,"42.322776","-71.076673","Boston","Blue Hill Ave @ Moreland St","Blue Hill Avenue"
"491",,"Stockton Street",,"42.283173","-71.071479","Boston","Washington St @ Stockton St","Washington Street"
"6689",,"Cottage Street",,"42.464086","-70.973941","Lynn","Boston St opp Cottage St","Boston Street"
"node-bomnl-pstair-platform",,,"Bowdoin - Bottom of stairs between ramp and lobby",,,"Boston","Bowdoin",
"7270",,,,"42.552271","-70.938449","Danvers","Liberty Tree Mall @ Best Buy",
"Alewife-01",,,"Alewife - Red Line - Track 1","42.395428","-71.142483","Cambridge","Alewife",
"78603",,"Brookfield Road",,"42.390359","-71.198023","Waltham","Waverley Oaks Rd opp Brookfield Rd","Waverley Oaks Road"
"3327",,"Hancock Court",,"42.245845","-71.000491","Quincy","Hancock St @ Hancock Court","Hancock Street"
"node-889-unpaidstreet",,,"Wood Island - Bottom of Elevator 889 (outside fare control)",,,"Boston","Wood Island",
"3714",,"Gordon Road",,"42.22461","-70.969039","Braintree","Quincy Ave @ Gordon Rd","Quincy Avenue"
"node-aport-ebpaidstairs-bridge",,,"Airport - Top of stairs on Wonderland, Busway side",,,"Boston","Airport",
"7289",,"Stetson Street",,"42.474044","-70.958408","Lynn","Boston St opp Stetson St","Boston Street"
"8904",,"Varnum Park",,"42.384792","-71.241094","Waltham","Bacon St @ Varnum Pk","Bacon Street"
"5031",,,,"42.417908","-71.110125","Medford","Main St @ High St","Main Street"
"29009",,,"Sullivan Square - Lower Berth 9","42.384035","-71.076317","Boston","Sullivan Square","Busway"
"3302",,,,"42.254818","-70.966735","Quincy","333 Palmer St","Palmer Street"
"1215",,"Bray Street",,"42.317244","-71.098115","Boston","Columbus Ave @ Bray St","Columbus Avenue"
"node-qnctr-center-lobby",,,"Quincy Center - Quincy Center lobby",,,"Quincy","Quincy Center",
"3274",,"Manet Avenue",,"42.266341","-70.966823","Quincy","Sea St @ Manet Ave","Sea Street"
"4024",,"Franklin Street",,"42.212075","-71.019834","Braintree","Granite St @ West St","Granite Street"
"place-capst","50 Capen St, Milton, MA 02186",,,"42.267712","-71.087753","Milton","Capen Street",
"7433",,"Nason Road",,"42.449863","-70.998981","Saugus","Lincoln Ave @ Nason Rd","Lincoln Avenue"
"291",,"D Street",,"42.336362","-71.054006","Boston","W 7th St @ D St","West Seventh Street"
"3159",,"Ocean Street",,"42.285171","-71.024893","Quincy","E Squantum St @ Windsor Rd","East Squantum Street"
"7187",,"Lexington Drive",,"42.56925","-70.890242","Beverly","Cabot St @ Lexington Dr","Cabot Street"
"11",,"Shawmut Avenue",,"42.334763","-71.084459","Boston","Melnea Cass Blvd @ Kerr Way","Melnea Cass Boulevard"
"925",,"Barrows Street",,"42.353091","-71.13843","Boston","Cambridge St @ Barrows St","Cambridge Street"
"7858",,"Middle Street",,"42.356783","-71.198235","Newton","Adams St @ Lincoln Rd","Adams Street"
"2297",,"Dover Street",,"42.394341","-71.127033","Cambridge","Massachusetts Ave @ Haskell St","Massachusetts Avenue"
"4215",,,,"42.159754","-71.042987","Randolph","S Main St @ Elgin Court","South Main Street"
"door-nqncy-squantum",,,"North Quincy - West Squantum St","42.27521","-71.029243","Quincy","North Quincy - West Squantum St",
"door-cedgr-hillsdale",,,"Cedar Grove - Hillsdale St","42.279969","-71.061122","Boston","Cedar Grove - Hillsdale St",
"node-851-top",,,"Ruggles - Top of Forsyth Street entrance elevator",,,"Boston","Ruggles",
"7345",,"Gallo Road",,"42.504695","-70.98116","Lynn","Lynnfield St @ Gallo Rd","Lynnfield Street"
"84884",,"Needham Street",,"42.316351","-71.208755","Newton","Winchester St @ Dedham St","Winchester Street"
"29052",,,,"42.330197","-71.062576","Boston","South Bay Mall @ Target",
"913",,"Bigelow Street",,"42.350405","-71.166709","Boston","Washington St @ Breck Ave","Washington Street"
"6792",,"Woodlawn Street",,"42.47315","-70.965614","Lynn","22 Tapley St","Tapley Street"
"West Concord",,,"West Concord - Commuter Rail","42.457043","-71.392892","Concord","West Concord",
"1607",,"Greenwood Lane",,"42.386659","-71.240623","Waltham","Bacon St @ Greenwood Ln","Bacon Street"
"47548",,"Osprey Road",,"42.446891","-71.027419","Saugus","Broadway @ Osprey Rd","Broadway"
"1525",,"Pearl Street",,"42.332805","-71.113834","Brookline","Brookline Ave @ Pearl St","Brookline Avenue"
"7271",,"Sylvan Street",,"42.552366","-70.946365","Danvers","Pine St @ Sylvan St","Pine Street"
"1306",,"Shailer Street",,"42.343974","-71.124518","Brookline","Harvard St @ Shailer St","Harvard Street"
"8869",,"Chesnut Street",,"42.485493","-71.152187","Woburn","Main St @ Kilby St","Main Street"
"8338",,,,"42.436273","-71.031803","Malden","Kennedy Dr @ Bldg 184","Kennedy Drive"
"3853",,"Lurton Street",,"42.232065","-71.005795","Quincy","Independence Ave opp Lurton St","Independence Avenue"
"6946",,"Lydon Court",,"42.466499","-71.14655","Woburn","Main St @ Lydon Ct","Main Street"
"32002",,,"Quincy Center - Berth 2","42.251772","-71.005099","Quincy","Quincy Center","Busway"
"19073",,"Apthrop Road",,"42.468702","-71.071718","Melrose","Franklin St @ Vinton St","Franklin Street"
"3565",,"Ship Street",,"42.245838","-70.887341","Hingham","Otis St @ Ship St","Otis Street"
"2463",,"Clifton Street",,"42.393791","-71.136374","Cambridge","Rindge Ave @ Clifton St","Rindge Avenue"
"1518",,"Jersey Street",,"42.346894","-71.098925","Boston","Brookline Ave opp Jersey St","Brookline Avenue"
"5936",,"Orris Street",,"42.467987","-71.076114","Melrose","Walton Pk @ Orris St","Walton Park"
"5854",,"Porter Street",,"42.375017","-71.038653","Boston","Bennington St @ Porter St","Bennington Street"
"5704",,"Breed Street",,"42.417444","-71.000738","Revere","Revere St @ Breed St","Revere Street"
